{"type":"FeatureCollection","crs":{"type":"name","properties":{"name":"EPSG:4326"}},"features":[{"type":"Feature","id":1,"geometry":{"type":"Point","coordinates":[-1.55026794113243,53.8007185979777]},"properties":{"Publication_Year":2005,"Author":"Dabydeen, David","Title":"Disappearance","Publication_Title":null,"Date":"2005","Publisher":"Peepal Tree","Place":"Leeds","Language":"English","Genre_":null,"Link_Attachments":null,"Automatic_Tags":null,"ObjectId":1}},{"type":"Feature","id":2,"geometry":{"type":"Point","coordinates":[-3.18910689556847,55.953339500825]},"properties":{"Publication_Year":2021,"Author":"Miller, Kei","Title":"Things I have withheld: essays","Publication_Title":null,"Date":"2021","Publisher":"Canongate","Place":"Edinburgh","Language":null,"Genre_":null,"Link_Attachments":null,"Automatic_Tags":null,"ObjectId":2}},{"type":"Feature","id":3,"geometry":{"type":"Point","coordinates":[-1.55026794113243,53.8007185979777]},"properties":{"Publication_Year":2005,"Author":"McWatt, Mark A","Title":"Suspended sentences: fictions of atonement","Publication_Title":null,"Date":"2005","Publisher":"Peepal Tree","Place":"Leeds, England","Language":"English","Genre_":null,"Link_Attachments":null,"Automatic_Tags":null,"ObjectId":3}},{"type":"Feature","id":4,"geometry":{"type":"Point","coordinates":[-97.508599360714,35.5826839500639]},"properties":{"Publication_Year":2005,"Author":"Mandisa, Mosi","Title":"The deception is in the perception","Publication_Title":null,"Date":"2005","Publisher":"Tate Pub.","Place":"Oklahoma","Language":"English","Genre_":null,"Link_Attachments":null,"Automatic_Tags":null,"ObjectId":4}},{"type":"Feature","id":5,"geometry":{"type":"Point","coordinates":[-66.3276299997785,-33.2996899999531]},"properties":{"Publication_Year":2016,"Author":"Allfrey, Phyllis Shand; Esprit, Schuyler","Title":"The Orchid House","Publication_Title":null,"Date":"4/30/16","Publisher":"Papillote Press","Place":"S.l.","Language":null,"Genre_":null,"Link_Attachments":"http://www.amazon.com/Orchid-House-Phyllis-Shand-Allfrey/dp/0993108628/ref=sr_1_5_twi_pap_1?ie=UTF8&qid=1449595227&sr=8-5&keywords=orchid+house+allfrey","Automatic_Tags":null,"ObjectId":5}},{"type":"Feature","id":6,"geometry":{"type":"Point","coordinates":[-74.0071400003009,40.7145500001758]},"properties":{"Publication_Year":2004,"Author":"Suarez-Rivas, Maite; Mora, Alma; L??pez Escriv??, Ana","Title":"An illustrated treasury of Latino read-aloud stories: the world's best-loved stories for parent and child to share","Publication_Title":null,"Date":"2004","Publisher":"Black Dog & Leventhal Publishers","Place":"New York","Language":"Text in English and Spanish","Genre_":null,"Link_Attachments":null,"Automatic_Tags":null,"ObjectId":6}},{"type":"Feature","id":7,"geometry":{"type":"Point","coordinates":[-70.7952798862084,43.0562917838905]},"properties":{"Publication_Year":2007,"Author":"Harold, Gwyneth","Title":"Bad girls in school","Publication_Title":null,"Date":"2007","Publisher":"Heinemann","Place":"Oxford; Portsmouth, NH","Language":"English","Genre_":null,"Link_Attachments":null,"Automatic_Tags":null,"ObjectId":7}},{"type":"Feature","id":8,"geometry":{"type":"Point","coordinates":[-111.855790000186,39.8190799997309]},"properties":{"Publication_Year":1974,"Author":"Brathwaite, Kamau","Title":"Caribbean man in space and time: a bibliographical and conceptual approach","Publication_Title":null,"Date":"1974","Publisher":"Savacou Publications","Place":"Mona","Language":"English","Genre_":null,"Link_Attachments":null,"Automatic_Tags":null,"ObjectId":8}},{"type":"Feature","id":9,"geometry":{"type":"Point","coordinates":[-70.7952798862084,43.0562917838905]},"properties":{"Publication_Year":2007,"Author":"Edgell, Zee","Title":"Time and the river","Publication_Title":null,"Date":"2007","Publisher":"Heinemann","Place":"Oxford; Portsmouth, NH","Language":"English","Genre_":null,"Link_Attachments":null,"Automatic_Tags":null,"ObjectId":9}},{"type":"Feature","id":10,"geometry":{"type":"Point","coordinates":[-78.533329999999,21.7166699996525]},"properties":{"Publication_Year":2007,"Author":"??lvarez ??lvarez, Luis","Title":"El sue??o y el laberinto","Publication_Title":null,"Date":"2007","Publisher":"Ediciones ??vila","Place":"Ciego de ??vila, Cuba","Language":"Spanish","Genre_":null,"Link_Attachments":null,"Automatic_Tags":null,"ObjectId":10}},{"type":"Feature","id":11,"geometry":{"type":"Point","coordinates":[-74.0071400003009,40.7145500001758]},"properties":{"Publication_Year":2016,"Author":"Rhys, Jean; Danticat, Edwidge","Title":"Wide Sargasso Sea","Publication_Title":null,"Date":"1/25/16","Publisher":"W. W. Norton & Company","Place":"New York","Language":"English","Genre_":null,"Link_Attachments":"https://www.amazon.com/Wide-Sargasso-Sea-Jean-Rhys/dp/0393352560/ref=pd_bxgy_img_1/139-1464234-2611169?pd_rd_w=8cETJ&pf_rd_p=c64372fa-c41c-422e-990d-9e034f73989b&pf_rd_r=4EK267TH5TQ7QY9MZT89&pd_rd_r=347f1699-0ab1-4083-ab67-de8575b7ea57&pd_rd_wg=3M7LK&pd_rd_i=0393352560&psc=1&asin=0393308804&revisionId=&format=4&depth=1; https://www.amazon.com/Wide-Sargasso-Sea-Jean-Rhys/dp/0393352560/ref=sr_1_1?keywords=jean+rhys&qid=1636684868&sr=8-1&asin=0393308804&revisionId=&format=4&depth=1","Automatic_Tags":"British; Fiction; Historical fiction; Love stories; West Indies","ObjectId":11}},{"type":"Feature","id":12,"geometry":{"type":"Point","coordinates":[-74.0071400003009,40.7145500001758]},"properties":{"Publication_Year":2020,"Author":"Rhys, Jean; Jamison, Leslie","Title":"Good Morning, Midnight","Publication_Title":null,"Date":"3/17/20","Publisher":"W. W. Norton & Company","Place":"New York, NY","Language":"English","Genre_":null,"Link_Attachments":"https://www.amazon.com/Good-Morning-Midnight-Jean-Rhys/dp/0393357805/ref=pd_sbs_6/139-1464234-2611169?pd_rd_w=wWbCY&pf_rd_p=690958f6-2825-419e-9c16-73ffd4055b65&pf_rd_r=MSXPYS3G6DBK8MF0BD47&pd_rd_r=d342067d-7958-43b3-b164-5161ee410789&pd_rd_wg=OfFTQ&pd_rd_i=0393357805&psc=1&asin=0393357805&revisionId=&format=4&depth=1","Automatic_Tags":null,"ObjectId":12}},{"type":"Feature","id":13,"geometry":{"type":"Point","coordinates":[-79.3854400000003,43.6486900001575]},"properties":{"Publication_Year":2006,"Author":null,"Title":"Skin folk: short stories","Publication_Title":null,"Date":"2006","Publisher":"Literature Alive","Place":"Toronto, Canada","Language":"English","Genre_":null,"Link_Attachments":null,"Automatic_Tags":null,"ObjectId":13}},{"type":"Feature","id":14,"geometry":{"type":"Point","coordinates":[-74.0071400003009,40.7145500001758]},"properties":{"Publication_Year":2020,"Author":"Rhys, Jean; Seymour, Miranda","Title":"After Leaving Mr. Mackenzie","Publication_Title":null,"Date":"3/17/20","Publisher":"W. W. Norton & Company","Place":"New York, NY","Language":"English","Genre_":" Genre: ","Link_Attachments":"https://www.amazon.com/After-Leaving-Mackenzie-Jean-Rhys/dp/0393357813/ref=pd_bxgy_img_1/139-1464234-2611169?pd_rd_w=oVTEp&pf_rd_p=c64372fa-c41c-422e-990d-9e034f73989b&pf_rd_r=7V94WHB35894DTV0PGHH&pd_rd_r=c460141a-7d5b-4673-8ae9-2b82ce395754&pd_rd_wg=gSW35&pd_rd_i=0393357813&psc=1&asin=0393357813&revisionId=&format=4&depth=1","Automatic_Tags":null,"ObjectId":14}},{"type":"Feature","id":15,"geometry":{"type":"Point","coordinates":[-74.0071400003009,40.7145500001758]},"properties":{"Publication_Year":2007,"Author":"Mason, Alane Salierno; Felman, Dedi; Schnee, Samantha","Title":"Words without borders: the world through the eyes of writers : an anthology","Publication_Title":null,"Date":"2007","Publisher":"Anchor Books","Place":"New York","Language":"English","Genre_":null,"Link_Attachments":null,"Automatic_Tags":null,"ObjectId":15}},{"type":"Feature","id":16,"geometry":{"type":"Point","coordinates":[-74.0071400003009,40.7145500001758]},"properties":{"Publication_Year":2019,"Author":"Naipaul, V. S.","Title":"Bend In The River","Publication_Title":null,"Date":"2019","Publisher":null,"Place":"New York","Language":"English","Genre_":null,"Link_Attachments":"https://www.amazon.com/A-Bend-in-the-River/dp/1841593915/ref=tmm_hrd_swatch_0?_encoding=UTF8&qid=1636674423&sr=8-2&asin=0679722025&revisionId=&format=4&depth=1","Automatic_Tags":null,"ObjectId":16}},{"type":"Feature","id":17,"geometry":{"type":"Point","coordinates":[-74.0071400003009,40.7145500001758]},"properties":{"Publication_Year":1959,"Author":"Marshall, Paule","Title":"Brown girl, brownstones","Publication_Title":null,"Date":"1959","Publisher":"Feminist Press at the City University of New York","Place":"New York","Language":null,"Genre_":null,"Link_Attachments":null,"Automatic_Tags":"Bildungsromans; Domestic fiction; Feminist fiction; Fiction; New York (N.Y.); West Indian Americans; Young women","ObjectId":17}},{"type":"Feature","id":18,"geometry":{"type":"Point","coordinates":[-76.7882700000323,17.970919999744]},"properties":{"Publication_Year":2007,"Author":"Anthony, Michael","Title":"The chieftain's carnival and other stories","Publication_Title":null,"Date":"2007","Publisher":"Ian Randle Publishers","Place":"Kingston","Language":"English","Genre_":null,"Link_Attachments":null,"Automatic_Tags":null,"ObjectId":18}},{"type":"Feature","id":19,"geometry":{"type":"Point","coordinates":[-1.25762862282567,51.7519826571134]},"properties":{"Publication_Year":2008,"Author":"Gilroy, Beryl","Title":"Frangipani House","Publication_Title":null,"Date":"2008","Publisher":"Heinemann","Place":"Oxford","Language":"English","Genre_":null,"Link_Attachments":null,"Automatic_Tags":null,"ObjectId":19}},{"type":"Feature","id":20,"geometry":{"type":"Point","coordinates":[0.0957355600897646,51.7687983250265]},"properties":{"Publication_Year":2008,"Author":"Reid, Victor Stafford","Title":"The leopard","Publication_Title":null,"Date":"2008","Publisher":"Heinemann","Place":"Harlow, Essex","Language":"English","Genre_":null,"Link_Attachments":null,"Automatic_Tags":null,"ObjectId":20}},{"type":"Feature","id":21,"geometry":{"type":"Point","coordinates":[-0.12769869318213,51.5074083600845]},"properties":{"Publication_Year":1966,"Author":"Dathorne, O. R","Title":"Caribbean narrative: an anthology of West Indian writing","Publication_Title":null,"Date":"1966","Publisher":"Heinemann","Place":"London","Language":"English","Genre_":null,"Link_Attachments":null,"Automatic_Tags":null,"ObjectId":21}},{"type":"Feature","id":22,"geometry":{"type":"Point","coordinates":[-1.25762862282567,51.7519826571134]},"properties":{"Publication_Year":2008,"Author":"Henry, Lewis","Title":"The gaulin and the dove","Publication_Title":null,"Date":"2008","Publisher":"Heinemann","Place":"Oxford","Language":"English","Genre_":null,"Link_Attachments":null,"Automatic_Tags":null,"ObjectId":22}},{"type":"Feature","id":23,"geometry":{"type":"Point","coordinates":[-59.6499999998314,13.2499999998219]},"properties":{"Publication_Year":2008,"Author":"Cummins, Alvin","Title":"The royal palms are dying","Publication_Title":null,"Date":"2008","Publisher":"Caribbean Chapters","Place":"Speightstown, St. Peter, Barbados","Language":"English","Genre_":null,"Link_Attachments":null,"Automatic_Tags":null,"ObjectId":23}},{"type":"Feature","id":24,"geometry":{"type":"Point","coordinates":[-0.478920560272808,51.4886953208176]},"properties":{"Publication_Year":1969,"Author":"Naipaul, V. S","Title":"A flag on the island","Publication_Title":null,"Date":"1969","Publisher":"Middlesex, Eng. : Penguin Books","Place":"Harmondsworth","Language":"English","Genre_":null,"Link_Attachments":null,"Automatic_Tags":null,"ObjectId":24}},{"type":"Feature","id":25,"geometry":{"type":"Point","coordinates":[11.5775399996518,48.1364100002352]},"properties":{"Publication_Year":2007,"Author":"Rossell, Judith","Title":"Piratenfluch","Publication_Title":null,"Date":"2007","Publisher":"Cbj","Place":"Munich","Language":"In German","Genre_":null,"Link_Attachments":null,"Automatic_Tags":null,"ObjectId":25}},{"type":"Feature","id":26,"geometry":{"type":"Point","coordinates":[-73.9903599999012,40.692450000328]},"properties":{"Publication_Year":1989,"Author":"Clarke, Velta J","Title":"Native landscapes: an anthology of Caribbean short stories","Publication_Title":null,"Date":"1989","Publisher":"Caribbean Research Center, Medgar Evers College, City University of New York","Place":"Brooklyn","Language":"English","Genre_":null,"Link_Attachments":null,"Automatic_Tags":null,"ObjectId":26}},{"type":"Feature","id":27,"geometry":{"type":"Point","coordinates":[-76.7882700000323,17.970919999744]},"properties":{"Publication_Year":2007,"Author":"Anthony, Michael","Title":"Bright road to El Dorado","Publication_Title":null,"Date":"2007","Publisher":"Ian Randle Publishers","Place":"Kingston, Jamaica; Miami","Language":"English","Genre_":null,"Link_Attachments":null,"Automatic_Tags":null,"ObjectId":27}},{"type":"Feature","id":28,"geometry":{"type":"Point","coordinates":[-70.2183399995602,44.0985599997658]},"properties":{"Publication_Year":1996,"Author":"Roumain, Jacques; Damas, L??on-Gontran; Tardon, Rapha??l; Zobel, Joseph; Carbet, Marie-Magdeleine; Lacrosil, Mich??le; Alexis, Jacques St??phen; Morand-Capasso, Florette; Magloire-Saint-Aude, Cl??ment; Juminer, Bert??ne; Depestre, Ren??; Hyvrard, Jeanne; Ceriote, Maryse; Cond??, Maryse; Cholakian, Rouben Charles","Title":"Complete narratives of francophone Caribbean tales","Publication_Title":null,"Date":"1996","Publisher":"E. Mellen Press","Place":"Lewiston","Language":"Text in French, with an introduction in English","Genre_":null,"Link_Attachments":null,"Automatic_Tags":null,"ObjectId":28}},{"type":"Feature","id":29,"geometry":{"type":"Point","coordinates":[-74.0071400003009,40.7145500001758]},"properties":{"Publication_Year":2007,"Author":"Winkler, Anthony C","Title":"Dog war","Publication_Title":null,"Date":"2007","Publisher":"Akashic Books","Place":"New York, NY","Language":"English","Genre_":null,"Link_Attachments":null,"Automatic_Tags":null,"ObjectId":29}},{"type":"Feature","id":30,"geometry":{"type":"Point","coordinates":[-74.0071400003009,40.7145500001758]},"properties":{"Publication_Year":2008,"Author":"Meyer, Kai; Crawford, Elizabeth D","Title":"Pirate emperor","Publication_Title":null,"Date":"2008","Publisher":"Aladdin Paperbacks","Place":"New York","Language":"English","Genre_":null,"Link_Attachments":null,"Automatic_Tags":null,"ObjectId":30}},{"type":"Feature","id":31,"geometry":{"type":"Point","coordinates":[-75.5975699999205,42.4420800002057]},"properties":{"Publication_Year":2001,"Author":"Brown, Stewart; Wickham, John","Title":"The Oxford book of Caribbean short stories","Publication_Title":null,"Date":"2001","Publisher":"Oxford University Press","Place":"Oxford; New York","Language":"English","Genre_":null,"Link_Attachments":null,"Automatic_Tags":null,"ObjectId":31}},{"type":"Feature","id":32,"geometry":{"type":"Point","coordinates":[-61.5160299997867,10.661030000328]},"properties":{"Publication_Year":2009,"Author":"Montano, Machel; Sharpe, Len; Roberts, Kemal; Scott, Kenneth; Chow Lin On, Anthony; Olliveira, Franklyn; Phase II Pan Groove (Musical group)","Title":"Boy Boy and the magic drum","Publication_Title":null,"Date":"2009","Publisher":"Caribbean Planet","Place":"Port of Spain, Trinidad and Tobago","Language":"English","Genre_":null,"Link_Attachments":null,"Automatic_Tags":null,"ObjectId":32}},{"type":"Feature","id":33,"geometry":{"type":"Point","coordinates":[-59.5564244783682,13.1722219791258]},"properties":{"Publication_Year":1995,"Author":"Morgan, Peter","Title":"The Caribbean connection","Publication_Title":null,"Date":"1995","Publisher":"Caribbean Quality Adventures","Place":"Barbados","Language":"English","Genre_":null,"Link_Attachments":null,"Automatic_Tags":null,"ObjectId":33}},{"type":"Feature","id":34,"geometry":{"type":"Point","coordinates":[-63.0445900002631,18.0254600002023]},"properties":{"Publication_Year":2009,"Author":null,"Title":"Swann's way","Publication_Title":null,"Date":"2009","Publisher":"HNP [House of Nehesi Publishers] ; Distributed by BBC Audiobooks America","Place":"Philipsburg, St. Martin, Caribbean; North Kingstown, R.I.","Language":"Translated from French","Genre_":null,"Link_Attachments":null,"Automatic_Tags":null,"ObjectId":34}},{"type":"Feature","id":35,"geometry":{"type":"Point","coordinates":[-122.27560775927,37.8470937234578]},"properties":{"Publication_Year":2006,"Author":"Nunez, Elizabeth; Sparrow, Jennifer","Title":"Stories from blue latitudes: Caribbean women writers at home and abroad","Publication_Title":null,"Date":"2006","Publisher":"Seal Press ; Distributed by Publishers Group West","Place":"Emeryville, CA; [Berkeley, Calif.","Language":"English","Genre_":null,"Link_Attachments":null,"Automatic_Tags":null,"ObjectId":35}},{"type":"Feature","id":36,"geometry":{"type":"Point","coordinates":[-63.0445900002631,18.0254600002023]},"properties":{"Publication_Year":2009,"Author":null,"Title":"Swann's way. Part two Part two","Publication_Title":null,"Date":"2009","Publisher":"HNP (House of Nehesi Publishers) ; BBC Audiobooks America","Place":"Philipsburg, St. Martin, Caribbean; North Kingstown, R.I.","Language":"English","Genre_":null,"Link_Attachments":null,"Automatic_Tags":null,"ObjectId":36}},{"type":"Feature","id":37,"geometry":{"type":"Point","coordinates":[-0.12769869318213,51.5074083600845]},"properties":{"Publication_Year":1972,"Author":"Salkey, Andrew","Title":"Stories from the Caribbean: an anthology","Publication_Title":null,"Date":"1972","Publisher":"Elek","Place":"London","Language":"English","Genre_":null,"Link_Attachments":null,"Automatic_Tags":null,"ObjectId":37}},{"type":"Feature","id":38,"geometry":{"type":"Point","coordinates":[151.065499999719,-34.0161899999857]},"properties":{"Publication_Year":2009,"Author":"Caminero-Santangelo, Marta; Boland, Roy","Title":"Trujillo, trauma, testimony: Mario Vargas Llosa, Julia Alvarez, Edwidge Danticat, Junot D??az and other writers on Hispaniola","Publication_Title":null,"Date":"2009","Publisher":"Antipodas","Place":"Jannali, N.S.W.","Language":"Includes articles in both Spanish and English","Genre_":null,"Link_Attachments":null,"Automatic_Tags":null,"ObjectId":38}},{"type":"Feature","id":39,"geometry":{"type":"Point","coordinates":[-0.12769869318213,51.5074083600845]},"properties":{"Publication_Year":1971,"Author":"James, C. L. R","Title":"Minty alley","Publication_Title":null,"Date":"1971","Publisher":"New Beacon Books","Place":"London","Language":"English","Genre_":null,"Link_Attachments":null,"Automatic_Tags":null,"ObjectId":39}},{"type":"Feature","id":40,"geometry":{"type":"Point","coordinates":[0.0957355600897646,51.7687983250265]},"properties":{"Publication_Year":2009,"Author":"Franklyn, David","Title":"Children of the sea","Publication_Title":null,"Date":"2009","Publisher":"Heinemann","Place":"Harlow","Language":"English","Genre_":null,"Link_Attachments":null,"Automatic_Tags":null,"ObjectId":40}},{"type":"Feature","id":41,"geometry":{"type":"Point","coordinates":[-79.3854400000003,43.6486900001575]},"properties":{"Publication_Year":1988,"Author":"Birbalsingh, Frank","Title":"Jahaji Bhai: an anthology of Indo-Caribbean literature","Publication_Title":null,"Date":"1988","Publisher":"TSAR","Place":"Toronto","Language":"English","Genre_":null,"Link_Attachments":null,"Automatic_Tags":null,"ObjectId":41}},{"type":"Feature","id":42,"geometry":{"type":"Point","coordinates":[-61.5160299997867,10.661030000328]},"properties":{"Publication_Year":2009,"Author":"Maharajh, Shiva Shridath","Title":"The beast of venus: a novel in three parts","Publication_Title":null,"Date":"2009","Publisher":"Grassroots Theatre Productions in assiciation with StarApple","Place":"Port of Spain, Trinidad and Tobago","Language":"English","Genre_":null,"Link_Attachments":null,"Automatic_Tags":null,"ObjectId":42}},{"type":"Feature","id":43,"geometry":{"type":"Point","coordinates":[-0.12769869318213,51.5074083600845]},"properties":{"Publication_Year":1976,"Author":"Giuseppi, Neville; Giuseppi, Undine","Title":"Backfire: a collection of short stories from the Caribbean for use in secondary schools","Publication_Title":null,"Date":"1976","Publisher":"Macmillan Caribbean","Place":"London","Language":"English","Genre_":null,"Link_Attachments":null,"Automatic_Tags":null,"ObjectId":43}},{"type":"Feature","id":44,"geometry":{"type":"Point","coordinates":[-63.0445900002631,18.0254600002023]},"properties":{"Publication_Year":2009,"Author":null,"Title":"Swann's way. [vol. 1], Part two [vol. 1], Part two","Publication_Title":null,"Date":"2009","Publisher":"HNP (House of Nehesi Publishers) ; BBC Audiobooks America","Place":"Philipsburg, St. Martin, Caribbean; North Kingstown, R.I.","Language":"English","Genre_":null,"Link_Attachments":null,"Automatic_Tags":null,"ObjectId":44}},{"type":"Feature","id":45,"geometry":{"type":"Point","coordinates":[-1.09115646266809,50.7968391132746]},"properties":{"Publication_Year":1994,"Author":"Scott, Lawrence","Title":"Ballad for the new world, and other stories","Publication_Title":null,"Date":"1994","Publisher":"Heinemann","Place":"Oxford [England]; Portsmouth, NH","Language":"English","Genre_":null,"Link_Attachments":null,"Automatic_Tags":null,"ObjectId":45}},{"type":"Feature","id":46,"geometry":{"type":"Point","coordinates":[-74.0071400003009,40.7145500001758]},"properties":{"Publication_Year":2010,"Author":"Mart??nez, Rueben; Unger, David; Col??n, Ra??l","Title":"Once upon a time: traditional Latin American tales = Hab??a una vez : cuentos tradicionales latinoamericanos","Publication_Title":null,"Date":"2010","Publisher":"Rayo","Place":"New York, NY","Language":"Text in English and Spanish","Genre_":null,"Link_Attachments":null,"Automatic_Tags":null,"ObjectId":46}},{"type":"Feature","id":47,"geometry":{"type":"Point","coordinates":[-79.3854400000003,43.6486900001575]},"properties":{"Publication_Year":2004,"Author":"Keens-Douglas, Richardo; Bourbonni??re, Sylvie","Title":"Tales from the Isle of Spice: a collection of new Caribbean folk tales","Publication_Title":null,"Date":"2004","Publisher":"Annick Press","Place":"Toronto","Language":"English","Genre_":null,"Link_Attachments":null,"Automatic_Tags":null,"ObjectId":47}},{"type":"Feature","id":48,"geometry":{"type":"Point","coordinates":[-81.514310000314,41.0843099998969]},"properties":{"Publication_Year":2010,"Author":"Papke, Renate","Title":"Poems at the edge of differences: mothering in new English poetry by women","Publication_Title":null,"Date":"2010","Publisher":"University of Akron Press","Place":"Akron, Ohio","Language":"English","Genre_":null,"Link_Attachments":null,"Automatic_Tags":null,"ObjectId":48}},{"type":"Feature","id":49,"geometry":{"type":"Point","coordinates":[-61.3802600003707,10.6040300003435]},"properties":{"Publication_Year":2010,"Author":"Stone, Judy; Aiyejina, Funso; Cropper Foundation; University of the West Indies (Saint Augustine, Trinidad and Tobago); Faculty of Humanities and Education","Title":"Moving right along: Caribbean stories in honour of John Cropper","Publication_Title":null,"Date":"2010","Publisher":"Lexicon","Place":"Caroni, Trinidad and Tobago","Language":"English","Genre_":null,"Link_Attachments":null,"Automatic_Tags":null,"ObjectId":49}},{"type":"Feature","id":50,"geometry":{"type":"Point","coordinates":[-61.5160299997867,10.661030000328]},"properties":{"Publication_Year":2010,"Author":"Galt, Roy A","Title":"Mysteriously the trips","Publication_Title":null,"Date":"2010","Publisher":"Roy A. Galt","Place":"Port of Spain, Trinidad","Language":"English","Genre_":null,"Link_Attachments":null,"Automatic_Tags":null,"ObjectId":50}},{"type":"Feature","id":51,"geometry":{"type":"Point","coordinates":[-76.7882700000323,17.970919999744]},"properties":{"Publication_Year":2010,"Author":"Harris, K. Sean","Title":"Kiss of death: being with her can be a matter of life and death","Publication_Title":null,"Date":"2010","Publisher":"LMH Publishing Ltd.","Place":"Kingston, Jamaica","Language":"English","Genre_":null,"Link_Attachments":null,"Automatic_Tags":null,"ObjectId":51}},{"type":"Feature","id":52,"geometry":{"type":"Point","coordinates":[-0.12769869318213,51.5074083600845]},"properties":{"Publication_Year":2010,"Author":"Carre, John Le","Title":"Our Kind of Traitor","Publication_Title":null,"Date":"2010","Publisher":"Viking","Place":"London","Language":"English","Genre_":null,"Link_Attachments":null,"Automatic_Tags":null,"ObjectId":52}},{"type":"Feature","id":53,"geometry":{"type":"Point","coordinates":[-74.0071400003009,40.7145500001758]},"properties":{"Publication_Year":2010,"Author":"Allende, Isabel; Merkerson, S. Epatha; Harper Audio (Firm)","Title":"Island beneath the sea","Publication_Title":null,"Date":"2010","Publisher":"HarperCollins","Place":"New York","Language":"English","Genre_":null,"Link_Attachments":null,"Automatic_Tags":null,"ObjectId":53}},{"type":"Feature","id":54,"geometry":{"type":"Point","coordinates":[-1.55026794113243,53.8007185979777]},"properties":{"Publication_Year":2010,"Author":"Mittelh??lzer, Edgar","Title":"The life and death of Sylvia","Publication_Title":null,"Date":"2010","Publisher":"Peepal Tree Press","Place":"Leeds","Language":"English","Genre_":null,"Link_Attachments":null,"Automatic_Tags":null,"ObjectId":54}},{"type":"Feature","id":55,"geometry":{"type":"Point","coordinates":[-77.3807600000313,35.6121499996931]},"properties":{"Publication_Year":2011,"Author":"Kelly, Ivory; Wieland, Liza; East Carolina University; Department of English","Title":"Brackish water: stories","Publication_Title":null,"Date":"2011","Publisher":"East Carolina University","Place":"Greenville, N.C.","Language":"English","Genre_":null,"Link_Attachments":null,"Automatic_Tags":null,"ObjectId":55}},{"type":"Feature","id":56,"geometry":{"type":"Point","coordinates":[-86.53480000002,39.1666000000031]},"properties":{"Publication_Year":2011,"Author":"Daisley, Liesel","Title":"Remember to say thank you","Publication_Title":null,"Date":"2011","Publisher":"AuthorHouse","Place":"Bloomington, IN","Language":"English","Genre_":null,"Link_Attachments":null,"Automatic_Tags":null,"ObjectId":56}},{"type":"Feature","id":57,"geometry":{"type":"Point","coordinates":[-61.5160299997867,10.661030000328]},"properties":{"Publication_Year":2011,"Author":"Salandy-Brown, Marina; Dayal, Joan; Delon, Danielle; Browne, Miguel; Healy, Dara; Persad, Lylah; Perkins, Thelma; Ulerie, Theodora","Title":"Children's stories from the Bocas Lit Fest 2011","Publication_Title":null,"Date":"2011","Publisher":"Bocas Lit Fest","Place":"Port of Spain, Trinidad and Tobago","Language":"English","Genre_":null,"Link_Attachments":null,"Automatic_Tags":null,"ObjectId":57}},{"type":"Feature","id":58,"geometry":{"type":"Point","coordinates":[-78.4775600000128,38.0321299999464]},"properties":{"Publication_Year":2011,"Author":"Dib, Mohammed; Dickson, C; Mortimer, Mildred P; Dib, Mohammed; Dib, Mohammed","Title":"At the cafe ; &, The talisman","Publication_Title":null,"Date":"2011","Publisher":"University of Virginia Press","Place":"Charlottesville","Language":"Translated from the French","Genre_":null,"Link_Attachments":null,"Automatic_Tags":null,"ObjectId":58}},{"type":"Feature","id":59,"geometry":{"type":"Point","coordinates":[-61.5160299997867,10.661030000328]},"properties":{"Publication_Year":2011,"Author":"Chadee, Trevor","Title":"The beautiful rain","Publication_Title":null,"Date":"2011","Publisher":"Trevor Chadee","Place":"Port of Spain, Trinidad and Tobago","Language":"English","Genre_":null,"Link_Attachments":null,"Automatic_Tags":null,"ObjectId":59}},{"type":"Feature","id":60,"geometry":{"type":"Point","coordinates":[-1.55026794113243,53.8007185979777]},"properties":{"Publication_Year":1938,"Author":"Napier, Elma","Title":"A flying fish whispered","Publication_Title":null,"Date":"1938","Publisher":"Peepal Tree","Place":"Leeds","Language":"English","Genre_":" Genre: ","Link_Attachments":"https://www.amazon.com/Flying-Whispered-Caribbean-Modern-Classics/dp/1845231023/ref=sr_1_2?keywords=napier+elma&qid=1637030006&qsid=145-6120538-3430866&s=books&sr=1-2&sres=0953222446%2C1845231023%2CB0008BMG30%2CB0007J0JX2%2C1496813049","Automatic_Tags":null,"ObjectId":60}},{"type":"Feature","id":61,"geometry":{"type":"Point","coordinates":[-80.3411558709754,25.5821147355731]},"properties":{"Publication_Year":2012,"Author":"Brodber, Erna","Title":"The world is a high hill: stories about Jamaican women","Publication_Title":null,"Date":"2012","Publisher":"Ian Randle","Place":"Kingston; Miami","Language":"English","Genre_":null,"Link_Attachments":null,"Automatic_Tags":null,"ObjectId":61}},{"type":"Feature","id":62,"geometry":{"type":"Point","coordinates":[-74.0752700002313,40.642419999851]},"properties":{"Publication_Year":2011,"Author":"Deen, Kamalo","Title":"Curry cascadoo: a story","Publication_Title":null,"Date":"2011","Publisher":"Pempaleh International Productions","Place":"Staten Island, New York","Language":"English","Genre_":null,"Link_Attachments":null,"Automatic_Tags":null,"ObjectId":62}},{"type":"Feature","id":63,"geometry":{"type":"Point","coordinates":[-78.4775600000128,38.0321299999464]},"properties":{"Publication_Year":2012,"Author":"Dracius, Suzanne; Davis, Jamie","Title":"Climb to the sky","Publication_Title":null,"Date":"2012","Publisher":"University of Virginia Press","Place":"Charlottesville","Language":"English","Genre_":null,"Link_Attachments":null,"Automatic_Tags":null,"ObjectId":63}},{"type":"Feature","id":64,"geometry":{"type":"Point","coordinates":[-122.273069999728,37.8050800001946]},"properties":{"Publication_Year":2012,"Author":"Hopkinson, Nalo","Title":"Report from planet midnight plus \"Message in a bottle\" and \"Shift\" and \"Correcting the balance\" outspoken interview","Publication_Title":null,"Date":"2012","Publisher":"PM Press","Place":"Oakland, Calif.","Language":"English","Genre_":null,"Link_Attachments":null,"Automatic_Tags":null,"ObjectId":64}},{"type":"Feature","id":65,"geometry":{"type":"Point","coordinates":[-0.12769869318213,51.5074083600845]},"properties":{"Publication_Year":2013,"Author":"Mar??as, Javier; Allen, Esther","Title":"Dark back of time","Publication_Title":null,"Date":"2013","Publisher":"Penguin Classics","Place":"London","Language":"Translated from the Spanish","Genre_":null,"Link_Attachments":null,"Automatic_Tags":null,"ObjectId":65}},{"type":"Feature","id":66,"geometry":{"type":"Point","coordinates":[-74.0071400003009,40.7145500001758]},"properties":{"Publication_Year":2013,"Author":"Silva, K. E","Title":"A Simple Distance.","Publication_Title":null,"Date":"2013","Publisher":"Akashic Books","Place":"New York","Language":"English","Genre_":null,"Link_Attachments":null,"Automatic_Tags":null,"ObjectId":66}},{"type":"Feature","id":67,"geometry":{"type":"Point","coordinates":[-1.02584999972798,50.8868299999483]},"properties":{"Publication_Year":2015,"Author":"Marugg, Tip; Vincent, Paul","Title":"The roar of morning","Publication_Title":null,"Date":"2015","Publisher":"Yale University Press","Place":"New Haven; London","Language":"English","Genre_":null,"Link_Attachments":null,"Automatic_Tags":null,"ObjectId":67}},{"type":"Feature","id":68,"geometry":{"type":"Point","coordinates":[-106.248995000026,35.8756400002184]},"properties":{"Publication_Year":2016,"Author":"Nunez, Elizabeth; Allen, Corey; OverDrive, Inc","Title":"Even in Paradise","Publication_Title":null,"Date":"2016","Publisher":"Recorded Books, Inc.","Place":"S.I.","Language":"English","Genre_":null,"Link_Attachments":null,"Automatic_Tags":null,"ObjectId":68}},{"type":"Feature","id":69,"geometry":{"type":"Point","coordinates":[-95.3695200000097,29.7607799998231]},"properties":{"Publication_Year":2017,"Author":"Jaffe, Nina","Title":"The golden flower [eBook - NC Kids Digital Library]: a Ta??no myth From Puerto Rico","Publication_Title":null,"Date":"2017","Publisher":"Pi??ata Books","Place":"Houston","Language":"English","Genre_":null,"Link_Attachments":null,"Automatic_Tags":null,"ObjectId":69}},{"type":"Feature","id":70,"geometry":{"type":"Point","coordinates":[-61.5045400002288,10.6780000002648]},"properties":{"Publication_Year":2018,"Author":"Laughlin, Nicholas; Imoja, Nailah Folami; James, Marlon","Title":"So many islands stories from the Caribbean, Mediterranean, Indian and Pacific oceans","Publication_Title":null,"Date":"2018","Publisher":"Peekash Press","Place":"Cascade, Port of Spain, Trinidad and Tobago","Language":"English","Genre_":null,"Link_Attachments":null,"Automatic_Tags":null,"ObjectId":70}},{"type":"Feature","id":71,"geometry":{"type":"Point","coordinates":[-0.12769869318213,51.5074083600845]},"properties":{"Publication_Year":1859,"Author":"Trollope, Anthony","Title":"The West Indies and the Spanish Main","Publication_Title":null,"Date":"1859","Publisher":"Chapman & Hall","Place":"London","Language":"English","Genre_":" Genre: ","Link_Attachments":null,"Automatic_Tags":null,"ObjectId":71}},{"type":"Feature","id":72,"geometry":{"type":"Point","coordinates":[-2.24527576634496,53.478956242883]},"properties":{"Publication_Year":1881,"Author":"Wither, George","Title":"The Psalms of David,","Publication_Title":null,"Date":"1881","Publisher":"Printed for the Spenser Society [by C.E. Simms","Place":"Manchester","Language":"English","Genre_":null,"Link_Attachments":null,"Automatic_Tags":null,"ObjectId":72}},{"type":"Feature","id":73,"geometry":{"type":"Point","coordinates":[-61.2604881373754,10.4726742760458]},"properties":{"Publication_Year":2001,"Author":"Seaforth, Sybil; Cumberbatch, Winston","Title":"Caribbean short stories for children","Publication_Title":null,"Date":"2001","Publisher":"Sybil Seaforth","Place":"Trinidad and Tobago","Language":"English","Genre_":null,"Link_Attachments":null,"Automatic_Tags":null,"ObjectId":73}},{"type":"Feature","id":74,"geometry":{"type":"Point","coordinates":[-0.12769869318213,51.5074083600845]},"properties":{"Publication_Year":1978,"Author":"Saakana, Amon Saba","Title":"New Planet: anthology of modern Caribbean writing ; compiled and edited by Sebastian Clarke ; ill. by William Timothy.","Publication_Title":null,"Date":"1978","Publisher":"Karnak House, Caribbean Cultural International","Place":"London, Eng.","Language":"English","Genre_":null,"Link_Attachments":null,"Automatic_Tags":null,"ObjectId":74}},{"type":"Feature","id":75,"geometry":{"type":"Point","coordinates":[-1.1334542639466,52.6336325079098]},"properties":{"Publication_Year":2010,"Author":"Browne, Cecil","Title":"The moon is following me: a collection of short stories","Publication_Title":null,"Date":"2010","Publisher":"Matador","Place":"Leicester","Language":"English","Genre_":null,"Link_Attachments":null,"Automatic_Tags":null,"ObjectId":75}},{"type":"Feature","id":76,"geometry":{"type":"Point","coordinates":[-1.25762862282567,51.7519826571134]},"properties":{"Publication_Year":1993,"Author":"Scott, Lawrence","Title":"Witchbroom","Publication_Title":null,"Date":"1993","Publisher":"Heinemann","Place":"Oxford","Language":"English","Genre_":null,"Link_Attachments":null,"Automatic_Tags":null,"ObjectId":76}},{"type":"Feature","id":77,"geometry":{"type":"Point","coordinates":[-1.09115646266809,50.7968391132746]},"properties":{"Publication_Year":1993,"Author":"Powell, Patricia","Title":"Me dying trial","Publication_Title":null,"Date":"1993","Publisher":"Heinemann","Place":"Oxford [England]; Portsmouth, NH","Language":"English","Genre_":null,"Link_Attachments":null,"Automatic_Tags":null,"ObjectId":77}},{"type":"Feature","id":78,"geometry":{"type":"Point","coordinates":[-86.53480000002,39.1666000000031]},"properties":{"Publication_Year":2009,"Author":"Durant, Suzanne","Title":"Her own daughter","Publication_Title":null,"Date":"2009","Publisher":"iUniverse","Place":"Bloomington, IN","Language":"English","Genre_":null,"Link_Attachments":null,"Automatic_Tags":null,"ObjectId":78}},{"type":"Feature","id":79,"geometry":{"type":"Point","coordinates":[-79.9973399998529,40.4385100000188]},"properties":{"Publication_Year":2011,"Author":"Marks, N. C","Title":"When silence speaks","Publication_Title":null,"Date":"2011","Publisher":"Dorrance Pub.","Place":"Pittsburgh","Language":"English","Genre_":null,"Link_Attachments":null,"Automatic_Tags":null,"ObjectId":79}},{"type":"Feature","id":80,"geometry":{"type":"Point","coordinates":[-59.6126899998449,13.1120000000151]},"properties":{"Publication_Year":2013,"Author":"Reifer, Herbert J","Title":"Rich paupers","Publication_Title":null,"Date":"2013","Publisher":"The Author","Place":"Bridgetown, Barbados","Language":"English","Genre_":null,"Link_Attachments":null,"Automatic_Tags":null,"ObjectId":80}},{"type":"Feature","id":81,"geometry":{"type":"Point","coordinates":[-1.25762862282567,51.7519826571134]},"properties":{"Publication_Year":1990,"Author":"Mordecai, Pamela; Wilson, Betty","Title":"Her true-true name: [an anthology of women's writing from the Caribbean","Publication_Title":null,"Date":"1990","Publisher":"Heinemann International","Place":"Oxford","Language":"English","Genre_":null,"Link_Attachments":null,"Automatic_Tags":null,"ObjectId":81}},{"type":"Feature","id":82,"geometry":{"type":"Point","coordinates":[-0.12769869318213,51.5074083600845]},"properties":{"Publication_Year":1986,"Author":"Nichols, Grace","Title":"Whole of a morning sky","Publication_Title":null,"Date":"1986","Publisher":"Virago","Place":"London","Language":"English","Genre_":null,"Link_Attachments":null,"Automatic_Tags":null,"ObjectId":82}},{"type":"Feature","id":83,"geometry":{"type":"Point","coordinates":[-70.7952798862084,43.0562917838905]},"properties":{"Publication_Year":1993,"Author":"Collymore, Frank A; Barratt, Harold; Sander, Reinhard","Title":"The man who loved attending funerals and other stories","Publication_Title":null,"Date":"1993","Publisher":"Heinemann","Place":"Oxford; Portsmouth, N.H.","Language":"English","Genre_":null,"Link_Attachments":null,"Automatic_Tags":null,"ObjectId":83}},{"type":"Feature","id":84,"geometry":{"type":"Point","coordinates":[-1.09115646266809,50.7968391132746]},"properties":{"Publication_Year":1993,"Author":"Craig, Christine","Title":"Mint tea and other stories","Publication_Title":null,"Date":"1993","Publisher":"Heinemann International Literature and Textbooks ; Heinemann","Place":"Oxford [England]; Portsmouth, NH","Language":"English","Genre_":null,"Link_Attachments":null,"Automatic_Tags":null,"ObjectId":84}},{"type":"Feature","id":85,"geometry":{"type":"Point","coordinates":[-70.7952798862084,43.0562917838905]},"properties":{"Publication_Year":1993,"Author":"Spence, Vanessa","Title":"The roads are down","Publication_Title":null,"Date":"1993","Publisher":"Heinemann","Place":"Oxford; Portsmouth, NH","Language":"English","Genre_":null,"Link_Attachments":null,"Automatic_Tags":null,"ObjectId":85}},{"type":"Feature","id":86,"geometry":{"type":"Point","coordinates":[-1.25762862282567,51.7519826571134]},"properties":{"Publication_Year":1994,"Author":"Williams, David; Simmons-McDonald, Hazel; Caribbean Examinations Council","Title":"A World of prose for CXC","Publication_Title":null,"Date":"1994","Publisher":"Heinemann","Place":"Oxford","Language":"English","Genre_":null,"Link_Attachments":null,"Automatic_Tags":null,"ObjectId":86}},{"type":"Feature","id":87,"geometry":{"type":"Point","coordinates":[-1.25762862282567,51.7519826571134]},"properties":{"Publication_Year":2007,"Author":"Jacobs, Debbie","Title":"Zee Edgell: Beka Lamb","Publication_Title":null,"Date":"2007","Publisher":"Macmillan Caribbean","Place":"Oxford","Language":"English","Genre_":null,"Link_Attachments":null,"Automatic_Tags":null,"ObjectId":87}},{"type":"Feature","id":88,"geometry":{"type":"Point","coordinates":[0.0957355600897646,51.7687983250265]},"properties":{"Publication_Year":1986,"Author":"Lamming, George; Williams, David","Title":"In the castle of my skin / with a critical introduction by David Williams.","Publication_Title":null,"Date":"1986","Publisher":"Longman","Place":"Harlow, Essex","Language":"English","Genre_":null,"Link_Attachments":null,"Automatic_Tags":null,"ObjectId":88}},{"type":"Feature","id":89,"geometry":{"type":"Point","coordinates":[35.2187300001277,31.7800299996264]},"properties":{"Publication_Year":2016,"Author":"Valdman, Hayim","Title":"To the new world: the Kuriel family in the Caribbean Islands","Publication_Title":null,"Date":"2016","Publisher":"Comics","Place":"Jerusalem?","Language":"English","Genre_":null,"Link_Attachments":null,"Automatic_Tags":null,"ObjectId":89}},{"type":"Feature","id":90,"geometry":{"type":"Point","coordinates":[-74.0071400003009,40.7145500001758]},"properties":{"Publication_Year":1992,"Author":"Rhys, Jean","Title":"The collected short stories","Publication_Title":null,"Date":"1992","Publisher":"W.W. Norton","Place":"New York","Language":"English","Genre_":null,"Link_Attachments":null,"Automatic_Tags":null,"ObjectId":90}},{"type":"Feature","id":91,"geometry":{"type":"Point","coordinates":[0.537260086924623,51.815440031795]},"properties":{"Publication_Year":1994,"Author":"Brathwaite, Kamau","Title":"DreamStories","Publication_Title":null,"Date":"1994","Publisher":"Longman","Place":"Essex, England; White Plains, N.Y.","Language":"English","Genre_":null,"Link_Attachments":null,"Automatic_Tags":null,"ObjectId":91}},{"type":"Feature","id":92,"geometry":{"type":"Point","coordinates":[-76.6092599995553,39.2905800002388]},"properties":{"Publication_Year":2003,"Author":"Gittens-Jones, Cheryl","Title":"The cleansing","Publication_Title":null,"Date":"2003","Publisher":"PublishAmerica","Place":"Baltimore","Language":"English","Genre_":null,"Link_Attachments":null,"Automatic_Tags":null,"ObjectId":92}},{"type":"Feature","id":93,"geometry":{"type":"Point","coordinates":[-0.12769869318213,51.5074083600845]},"properties":{"Publication_Year":2001,"Author":"Applin, Barbara","Title":"The island-hopping game","Publication_Title":null,"Date":"2001","Publisher":"Macmillan Education","Place":"London","Language":"English","Genre_":null,"Link_Attachments":null,"Automatic_Tags":null,"ObjectId":93}},{"type":"Feature","id":94,"geometry":{"type":"Point","coordinates":[-66.0369021203266,18.4099876227834]},"properties":{"Publication_Year":2010,"Author":"Garc??a Goyco, Osvaldo","Title":"Tales of the Ta??no Gods: how the Caribbean Sea was born = Cuentos de los dioses ta??nos : como se cre?? el Mar Caribe","Publication_Title":null,"Date":"2010","Publisher":"Ediciones Zuimaco","Place":"San Juan, P.R.","Language":"English","Genre_":null,"Link_Attachments":null,"Automatic_Tags":null,"ObjectId":94}},{"type":"Feature","id":95,"geometry":{"type":"Point","coordinates":[-59.6384600000448,13.1838500000391]},"properties":{"Publication_Year":2012,"Author":"Williams, Edison T","Title":"Facing north: tales from Bathsheba","Publication_Title":null,"Date":"2012","Publisher":"The Author","Place":"St. James, Barbados","Language":"English","Genre_":null,"Link_Attachments":null,"Automatic_Tags":null,"ObjectId":95}},{"type":"Feature","id":96,"geometry":{"type":"Point","coordinates":[-74.0071400003009,40.7145500001758]},"properties":{"Publication_Year":1999,"Author":"Chamoiseau, Patrick; Rejouis, Rose-Myriam; Vinokur, Val","Title":"Solibo magnificent","Publication_Title":null,"Date":"1999","Publisher":"Vintage Books","Place":"New York","Language":"English","Genre_":null,"Link_Attachments":null,"Automatic_Tags":null,"ObjectId":96}},{"type":"Feature","id":97,"geometry":{"type":"Point","coordinates":[-0.12769869318213,51.5074083600845]},"properties":{"Publication_Year":1957,"Author":"Baumann, Hans","Title":"Son of Columbus","Publication_Title":null,"Date":"1957","Publisher":"Oxford University Press","Place":"London","Language":"English","Genre_":null,"Link_Attachments":null,"Automatic_Tags":null,"ObjectId":97}},{"type":"Feature","id":98,"geometry":{"type":"Point","coordinates":[-0.188199896987547,51.1144711450852]},"properties":{"Publication_Year":1960,"Author":"Lauchmonen","Title":"Guiana boy.","Publication_Title":null,"Date":"1960","Publisher":"New Literature","Place":"Crawley, Sussex, Eng.","Language":"English","Genre_":null,"Link_Attachments":null,"Automatic_Tags":null,"ObjectId":98}},{"type":"Feature","id":99,"geometry":{"type":"Point","coordinates":[-0.12769869318213,51.5074083600845]},"properties":{"Publication_Year":1967,"Author":"Patterson, Orlando","Title":"An absence of ruins","Publication_Title":null,"Date":"1967","Publisher":"Hutchinson","Place":"London","Language":"Text in English","Genre_":null,"Link_Attachments":null,"Automatic_Tags":null,"ObjectId":99}},{"type":"Feature","id":100,"geometry":{"type":"Point","coordinates":[-73.5489758725587,41.4678990413611]},"properties":{"Publication_Year":1944,"Author":"Thoby-Marcelin, Philippe; Marcelin, Pierre; Tinker, Edward Larocque","Title":"Canap??-Vert","Publication_Title":null,"Date":"1944","Publisher":"Farrar & Rinehart Inc.","Place":"New York; Toronto","Language":"Text in English","Genre_":null,"Link_Attachments":null,"Automatic_Tags":null,"ObjectId":100}},{"type":"Feature","id":101,"geometry":{"type":"Point","coordinates":[-0.12769869318213,51.5074083600845]},"properties":{"Publication_Year":1964,"Author":"Naipaul, V. S","Title":"The mystic masseur","Publication_Title":null,"Date":"1964","Publisher":"Penguin Books","Place":"London","Language":"English","Genre_":null,"Link_Attachments":null,"Automatic_Tags":null,"ObjectId":101}},{"type":"Feature","id":102,"geometry":{"type":"Point","coordinates":[-58.1612499999975,6.80858999976973]},"properties":{"Publication_Year":1995,"Author":"Singh, Roopnandan","Title":"Wild maami","Publication_Title":null,"Date":"1995","Publisher":"R. Singh","Place":"Georgetown, Guyana","Language":"Text in English","Genre_":null,"Link_Attachments":null,"Automatic_Tags":null,"ObjectId":102}},{"type":"Feature","id":103,"geometry":{"type":"Point","coordinates":[-74.0071400003009,40.7145500001758]},"properties":{"Publication_Year":1937,"Author":"Garner, Elizabeth","Title":"Duet in discord","Publication_Title":null,"Date":"1937","Publisher":"Knopf","Place":"New York","Language":"English","Genre_":null,"Link_Attachments":null,"Automatic_Tags":null,"ObjectId":103}},{"type":"Feature","id":104,"geometry":{"type":"Point","coordinates":[2.34139999961038,48.8571699999716]},"properties":{"Publication_Year":1952,"Author":"Marcelin, Pierre; Thoby-Marcelin, Philippe","Title":"Le crayon de Dieu: roman","Publication_Title":null,"Date":"1952","Publisher":"La Table ronde","Place":"Paris","Language":"Text in French","Genre_":null,"Link_Attachments":null,"Automatic_Tags":null,"ObjectId":104}},{"type":"Feature","id":105,"geometry":{"type":"Point","coordinates":[-0.12769869318213,51.5074083600845]},"properties":{"Publication_Year":1929,"Author":"Minchin, Humphrey Cotton","Title":"The legion book","Publication_Title":null,"Date":"1929","Publisher":"s.n.], 1929.","Place":"London","Language":"English","Genre_":null,"Link_Attachments":null,"Automatic_Tags":null,"ObjectId":105}},{"type":"Feature","id":106,"geometry":{"type":"Point","coordinates":[-74.0071400003009,40.7145500001758]},"properties":{"Publication_Year":1971,"Author":"Asturias, Miguel Angel; Rabassa, Gregory","Title":"The green pope","Publication_Title":null,"Date":"1971","Publisher":"Delacorte Press","Place":"New York","Language":"English","Genre_":null,"Link_Attachments":null,"Automatic_Tags":null,"ObjectId":106}},{"type":"Feature","id":107,"geometry":{"type":"Point","coordinates":[-0.12769869318213,51.5074083600845]},"properties":{"Publication_Year":1970,"Author":"Harris, Wilson","Title":"Ascent to Omai.","Publication_Title":null,"Date":"1970","Publisher":"Faber and Faber","Place":"London","Language":"English","Genre_":null,"Link_Attachments":null,"Automatic_Tags":null,"ObjectId":107}},{"type":"Feature","id":108,"geometry":{"type":"Point","coordinates":[-58.1612499999975,6.80858999976973]},"properties":{"Publication_Year":1995,"Author":"Singh, Roopnandan","Title":"Eve","Publication_Title":null,"Date":"1995","Publisher":"R. Singh","Place":"Georgetown, Guyana","Language":"Text in English","Genre_":null,"Link_Attachments":null,"Automatic_Tags":null,"ObjectId":108}},{"type":"Feature","id":109,"geometry":{"type":"Point","coordinates":[-0.12769869318213,51.5074083600845]},"properties":{"Publication_Year":1971,"Author":"Harris, Wilson; Usborne, Karen","Title":"The age of the rainmakers","Publication_Title":null,"Date":"1971","Publisher":"Faber and Faber","Place":"London","Language":"English","Genre_":null,"Link_Attachments":null,"Automatic_Tags":null,"ObjectId":109}},{"type":"Feature","id":110,"geometry":{"type":"Point","coordinates":[-0.12769869318213,51.5074083600845]},"properties":{"Publication_Year":1996,"Author":"Bent, Jennifer","Title":"How Anansi captured Tiger's stories","Publication_Title":null,"Date":"1996","Publisher":"Dutton","Place":"London","Language":"English","Genre_":null,"Link_Attachments":null,"Automatic_Tags":null,"ObjectId":110}},{"type":"Feature","id":111,"geometry":{"type":"Point","coordinates":[-0.12769869318213,51.5074083600845]},"properties":{"Publication_Year":1968,"Author":"Harris, Wilson","Title":"Tumatumari.","Publication_Title":null,"Date":"1968","Publisher":"Faber and Faber","Place":"London","Language":"English","Genre_":null,"Link_Attachments":null,"Automatic_Tags":null,"ObjectId":111}},{"type":"Feature","id":112,"geometry":{"type":"Point","coordinates":[-1.09115646266809,50.7968391132746]},"properties":{"Publication_Year":1996,"Author":"Anthony, Michael","Title":"In the heat of the day","Publication_Title":null,"Date":"1996","Publisher":"Heinemann Educational Publishers ; Heinemann","Place":"Oxford [England]; Portsmouth, NH","Language":"English","Genre_":null,"Link_Attachments":null,"Automatic_Tags":null,"ObjectId":112}},{"type":"Feature","id":113,"geometry":{"type":"Point","coordinates":[-74.3841900002685,40.7386500003215]},"properties":{"Publication_Year":1972,"Author":"Reid, Victor Stafford","Title":"New day","Publication_Title":null,"Date":"1972","Publisher":"Chatham Bookseller","Place":"Chatham, N.J.","Language":"Text in English","Genre_":null,"Link_Attachments":null,"Automatic_Tags":null,"ObjectId":113}},{"type":"Feature","id":114,"geometry":{"type":"Point","coordinates":[0.0957355600897646,51.7687983250265]},"properties":{"Publication_Year":1996,"Author":"Angelou, Maya; Gerschel, Liz","Title":"Quartet of songs","Publication_Title":null,"Date":"1996","Publisher":"Longman","Place":"Harlow","Language":"English","Genre_":null,"Link_Attachments":null,"Automatic_Tags":null,"ObjectId":114}},{"type":"Feature","id":115,"geometry":{"type":"Point","coordinates":[-0.12769869318213,51.5074083600845]},"properties":{"Publication_Year":1970,"Author":"Harris, Wilson; Usborne, Karen","Title":"The sleepers of Roraima: a Carib trilogy","Publication_Title":null,"Date":"1970","Publisher":"Faber","Place":"London","Language":"English","Genre_":null,"Link_Attachments":null,"Automatic_Tags":null,"ObjectId":115}},{"type":"Feature","id":116,"geometry":{"type":"Point","coordinates":[-1.55026794113243,53.8007185979777]},"properties":{"Publication_Year":1996,"Author":"Jin, Meiling","Title":"Song of the boatwoman","Publication_Title":null,"Date":"1996","Publisher":"Peepal Tree","Place":"Leeds, England","Language":"English","Genre_":null,"Link_Attachments":null,"Automatic_Tags":null,"ObjectId":116}},{"type":"Feature","id":117,"geometry":{"type":"Point","coordinates":[-0.12769869318213,51.5074083600845]},"properties":{"Publication_Year":1973,"Author":"Maran, Ren","Title":"Batouala;","Publication_Title":null,"Date":"1973","Publisher":"Heinemann","Place":"London","Language":"English","Genre_":null,"Link_Attachments":null,"Automatic_Tags":null,"ObjectId":117}},{"type":"Feature","id":118,"geometry":{"type":"Point","coordinates":[-1.55026794113243,53.8007185979777]},"properties":{"Publication_Year":1996,"Author":"Gilroy, Beryl","Title":"Inkle and Yarico","Publication_Title":null,"Date":"1996","Publisher":"Peepal Tree","Place":"Leeds [England","Language":"English","Genre_":null,"Link_Attachments":null,"Automatic_Tags":null,"ObjectId":118}},{"type":"Feature","id":119,"geometry":{"type":"Point","coordinates":[-0.12769869318213,51.5074083600845]},"properties":{"Publication_Year":1977,"Author":"Harris, Wilson; Harris, Wilson","Title":"Da Silva da Silva's cultivated wilderness: and, Genesis of the clowns","Publication_Title":null,"Date":"1977","Publisher":"Faber","Place":"London","Language":"English","Genre_":null,"Link_Attachments":null,"Automatic_Tags":null,"ObjectId":119}},{"type":"Feature","id":120,"geometry":{"type":"Point","coordinates":[-1.55026794113243,53.8007185979777]},"properties":{"Publication_Year":1996,"Author":"Dabydeen, Cyril","Title":"Berbice Crossing: and other stories","Publication_Title":null,"Date":"1996","Publisher":"Peepal Tree","Place":"Leeds","Language":"English","Genre_":null,"Link_Attachments":null,"Automatic_Tags":null,"ObjectId":120}},{"type":"Feature","id":121,"geometry":{"type":"Point","coordinates":[-1.55026794113243,53.8007185979777]},"properties":{"Publication_Year":1996,"Author":"Harris, Denise","Title":"Web of secrets","Publication_Title":null,"Date":"1996","Publisher":"Peepal Tree","Place":"Leeds, England","Language":"English","Genre_":null,"Link_Attachments":null,"Automatic_Tags":null,"ObjectId":121}},{"type":"Feature","id":122,"geometry":{"type":"Point","coordinates":[-74.0071400003009,40.7145500001758]},"properties":{"Publication_Year":1996,"Author":"D'Aguiar, Fred","Title":"Dear future","Publication_Title":null,"Date":"1996","Publisher":"Pantheon Books","Place":"New York","Language":"Text in English","Genre_":null,"Link_Attachments":null,"Automatic_Tags":null,"ObjectId":122}},{"type":"Feature","id":123,"geometry":{"type":"Point","coordinates":[-1.55026794113243,53.8007185979777]},"properties":{"Publication_Year":1996,"Author":"Maharaj, Rabindranath","Title":"The writer and his wife and other stories","Publication_Title":null,"Date":"1996","Publisher":"Peepal Tree","Place":"Leeds, Yorkshire, England","Language":"English","Genre_":null,"Link_Attachments":null,"Automatic_Tags":null,"ObjectId":123}},{"type":"Feature","id":124,"geometry":{"type":"Point","coordinates":[-1.09115646266809,50.7968391132746]},"properties":{"Publication_Year":1996,"Author":"Baldeosingh, Kevin","Title":"The autobiography of Paras P.","Publication_Title":null,"Date":"1996","Publisher":"Heinemann Educational Publishers","Place":"Oxford [England]; Portsmouth, NH","Language":"English","Genre_":null,"Link_Attachments":null,"Automatic_Tags":null,"ObjectId":124}},{"type":"Feature","id":125,"geometry":{"type":"Point","coordinates":[-96.7073000000688,40.8136200000175]},"properties":{"Publication_Year":1997,"Author":"Chamoiseau, Patrick; Coverdale, Linda","Title":"School days = Chemin-d'??cole","Publication_Title":null,"Date":"1997","Publisher":"University of Nebraska Press","Place":"Lincoln","Language":"English","Genre_":null,"Link_Attachments":null,"Automatic_Tags":null,"ObjectId":125}},{"type":"Feature","id":126,"geometry":{"type":"Point","coordinates":[-74.0071400003009,40.7145500001758]},"properties":{"Publication_Year":1997,"Author":"Behn, Aphra; Lipking, Joanna","Title":"Oroonoko: an authoritative text, historical backgrounds, criticism","Publication_Title":null,"Date":"1997","Publisher":"W.W. Norton","Place":"New York","Language":"English","Genre_":null,"Link_Attachments":null,"Automatic_Tags":null,"ObjectId":126}},{"type":"Feature","id":127,"geometry":{"type":"Point","coordinates":[-70.7952798862084,43.0562917838905]},"properties":{"Publication_Year":1997,"Author":"Edgell, Zee","Title":"The festival of San Joaquin","Publication_Title":null,"Date":"1997","Publisher":"Heinemann","Place":"Oxford; Portsmouth, N.H., USA","Language":"English","Genre_":null,"Link_Attachments":null,"Automatic_Tags":null,"ObjectId":127}},{"type":"Feature","id":128,"geometry":{"type":"Point","coordinates":[-70.7952798862084,43.0562917838905]},"properties":{"Publication_Year":1997,"Author":"Baldeosingh, Kevin","Title":"Virgin's triangle","Publication_Title":null,"Date":"1997","Publisher":"Heinemann Educational Pub.","Place":"Oxford; Portsmouth, NH","Language":"English","Genre_":null,"Link_Attachments":null,"Automatic_Tags":null,"ObjectId":128}},{"type":"Feature","id":129,"geometry":{"type":"Point","coordinates":[97.5675000002451,16.0800000003859]},"properties":{"Publication_Year":1997,"Author":"Philip, Maxwell; Cudjoe, Selwyn R; Cain, William E","Title":"Emmanuel Appadocca, or, Blighted life: a tale of the boucaneers","Publication_Title":null,"Date":"1997","Publisher":"University of Massachusetts Press","Place":"Amherst","Language":"English","Genre_":null,"Link_Attachments":null,"Automatic_Tags":null,"ObjectId":129}},{"type":"Feature","id":130,"geometry":{"type":"Point","coordinates":[-1.55026794113243,53.8007185979777]},"properties":{"Publication_Year":1997,"Author":"Arthur, Kevyn Alan","Title":"The view from Belmont","Publication_Title":null,"Date":"1997","Publisher":"Peepal Tree","Place":"Leeds","Language":"English","Genre_":null,"Link_Attachments":null,"Automatic_Tags":null,"ObjectId":130}},{"type":"Feature","id":131,"geometry":{"type":"Point","coordinates":[-1.55026794113243,53.8007185979777]},"properties":{"Publication_Year":1997,"Author":"Goulbourne, Jean","Title":"Excavation","Publication_Title":null,"Date":"1997","Publisher":"Peepal Tree","Place":"Leeds, England","Language":"English","Genre_":null,"Link_Attachments":null,"Automatic_Tags":null,"ObjectId":131}},{"type":"Feature","id":132,"geometry":{"type":"Point","coordinates":[-74.0071400003009,40.7145500001758]},"properties":{"Publication_Year":1997,"Author":"Lovelace, Earl","Title":"Salt","Publication_Title":null,"Date":"1997","Publisher":"Persea Books","Place":"New York","Language":"English","Genre_":null,"Link_Attachments":null,"Automatic_Tags":null,"ObjectId":132}},{"type":"Feature","id":133,"geometry":{"type":"Point","coordinates":[-82.393759999612,28.050569999876]},"properties":{"Publication_Year":1996,"Author":"Heurtelou, Maude; Vilsaint, Fequiere","Title":"Sezisman: pou Lafami Bonplezi","Publication_Title":null,"Date":"1996","Publisher":"Educa Vision","Place":"Temple Terrace, Fla.","Language":"English","Genre_":null,"Link_Attachments":null,"Automatic_Tags":null,"ObjectId":133}},{"type":"Feature","id":134,"geometry":{"type":"Point","coordinates":[-70.7952798862084,43.0562917838905]},"properties":{"Publication_Year":1997,"Author":"Adisa, Opal Palmer","Title":"It begins with tears","Publication_Title":null,"Date":"1997","Publisher":"Heinemann","Place":"Oxford [England]; Portsmouth, NH, USA","Language":"English","Genre_":" Original Pub Date: ","Link_Attachments":null,"Automatic_Tags":null,"ObjectId":134}},{"type":"Feature","id":135,"geometry":{"type":"Point","coordinates":[-70.7952798862084,43.0562917838905]},"properties":{"Publication_Year":1998,"Author":"Jones, Evan","Title":"Stone haven","Publication_Title":null,"Date":"1998","Publisher":"Heinemann","Place":"Oxford; Portsmouth, NH","Language":"English","Genre_":null,"Link_Attachments":null,"Automatic_Tags":null,"ObjectId":135}},{"type":"Feature","id":136,"geometry":{"type":"Point","coordinates":[-74.0071400003009,40.7145500001758]},"properties":{"Publication_Year":1999,"Author":"Ross, Robert L","Title":"Colonial and postcolonial fiction: an anthology","Publication_Title":null,"Date":"1999","Publisher":"Garland Pub.","Place":"New York","Language":"English","Genre_":null,"Link_Attachments":null,"Automatic_Tags":null,"ObjectId":136}},{"type":"Feature","id":137,"geometry":{"type":"Point","coordinates":[-73.9903599999012,40.692450000328]},"properties":{"Publication_Year":2000,"Author":"Aubertin, Michael","Title":"Neg Maron: freedom fighter","Publication_Title":null,"Date":"2000","Publisher":"Caribbean Diaspora Press","Place":"Brooklyn, N.Y.","Language":"English","Genre_":null,"Link_Attachments":null,"Automatic_Tags":null,"ObjectId":137}},{"type":"Feature","id":138,"geometry":{"type":"Point","coordinates":[-58.1612499999975,6.80858999976973]},"properties":{"Publication_Year":2000,"Author":"Singh, Roopnandan","Title":"Shadow in the dark","Publication_Title":null,"Date":"2000","Publisher":"R. Singh, in conjunction with the Association of Guyanese Writers and Artists","Place":"Georgetown, Guyana","Language":"Text in English","Genre_":null,"Link_Attachments":null,"Automatic_Tags":null,"ObjectId":138}},{"type":"Feature","id":139,"geometry":{"type":"Point","coordinates":[-64.7841400001783,32.29362000003]},"properties":{"Publication_Year":1999,"Author":"Emery, Llewllyn","Title":"The fires of Pembroke","Publication_Title":null,"Date":"1999","Publisher":"Bermuda Pub. Co.","Place":"Hamilton, Bermuda","Language":"English","Genre_":null,"Link_Attachments":null,"Automatic_Tags":null,"ObjectId":139}},{"type":"Feature","id":140,"geometry":{"type":"Point","coordinates":[-80.1876299998255,26.2596399996783]},"properties":{"Publication_Year":1999,"Author":"Roumain, Jacques","Title":"Gouverneurs de la rosee","Publication_Title":null,"Date":"1999","Publisher":"Educa Vision Inc.","Place":"Coconut Creek, Fla.","Language":"English","Genre_":null,"Link_Attachments":null,"Automatic_Tags":null,"ObjectId":140}},{"type":"Feature","id":141,"geometry":{"type":"Point","coordinates":[-79.044419999554,43.1740699997682]},"properties":{"Publication_Year":2000,"Author":"Dorsinville, Roger; Dorsinville, Max; Dorsinville, Roger","Title":"The rule of Francois (\"Papa Doc\") Duvalier in two novels by Roger Dorsinville: realism and magic realism in Haiti","Publication_Title":null,"Date":"2000","Publisher":"E. Mellen Press","Place":"Lewiston [N.Y.","Language":"English","Genre_":null,"Link_Attachments":null,"Automatic_Tags":null,"ObjectId":141}},{"type":"Feature","id":142,"geometry":{"type":"Point","coordinates":[-88.993479999808,40.5108199996617]},"properties":{"Publication_Year":2001,"Author":"S??nchez, Luis Rafael; Rabassa, Gregory","Title":"Macho Camacho's beat","Publication_Title":null,"Date":"2001","Publisher":"Dalkey Archive Press","Place":"Normal, IL","Language":"English","Genre_":null,"Link_Attachments":null,"Automatic_Tags":null,"ObjectId":142}},{"type":"Feature","id":143,"geometry":{"type":"Point","coordinates":[-55.1654200000263,5.82031000036112]},"properties":{"Publication_Year":0,"Author":"Wols, Frits; Wong-Loi-Sing, Eugene Wilfried","Title":"Short stories: [an attempt to demolish the language barrier","Publication_Title":null,"Date":"0","Publisher":"Eugene Wilfried Wong-Loi-Sing?","Place":"Paramaribo, Suriname?","Language":"English","Genre_":null,"Link_Attachments":null,"Automatic_Tags":null,"ObjectId":143}},{"type":"Feature","id":144,"geometry":{"type":"Point","coordinates":[-61.3169299999389,10.6212500002776]},"properties":{"Publication_Year":2000,"Author":"James, Cynthia","Title":"Bluejean, a novel","Publication_Title":null,"Date":"2000","Publisher":"Green Tree Press","Place":"D'Abadie, Trinidad","Language":"Text in English","Genre_":null,"Link_Attachments":null,"Automatic_Tags":null,"ObjectId":144}},{"type":"Feature","id":145,"geometry":{"type":"Point","coordinates":[-61.2604881373754,10.4726742760458]},"properties":{"Publication_Year":2000,"Author":"Turner-Rolle, Telcine","Title":"Work edited by Telcine Turner-Rolle.","Publication_Title":null,"Date":"2000","Publisher":"UWI","Place":"Trindad & Tobago","Language":"English","Genre_":null,"Link_Attachments":null,"Automatic_Tags":null,"ObjectId":145}},{"type":"Feature","id":146,"geometry":{"type":"Point","coordinates":[-1.55026794113243,53.8007185979777]},"properties":{"Publication_Year":2000,"Author":"Persaud, Lakshmi","Title":"For the love of my name","Publication_Title":null,"Date":"2000","Publisher":"Peepal Tree","Place":"Leeds, England","Language":"English","Genre_":null,"Link_Attachments":null,"Automatic_Tags":null,"ObjectId":146}},{"type":"Feature","id":147,"geometry":{"type":"Point","coordinates":[-0.12769869318213,51.5074083600845]},"properties":{"Publication_Year":2001,"Author":"Naipaul, V. S","Title":"Half a life","Publication_Title":null,"Date":"2001","Publisher":"Picador","Place":"London","Language":"English","Genre_":null,"Link_Attachments":null,"Automatic_Tags":null,"ObjectId":147}},{"type":"Feature","id":148,"geometry":{"type":"Point","coordinates":[-1.25762862282567,51.7519826571134]},"properties":{"Publication_Year":2001,"Author":"Anthony, Michael","Title":"High tide of intrigue","Publication_Title":null,"Date":"2001","Publisher":"Heinemann","Place":"Oxford","Language":"English","Genre_":null,"Link_Attachments":null,"Automatic_Tags":null,"ObjectId":148}},{"type":"Feature","id":149,"geometry":{"type":"Point","coordinates":[-70.7952798862084,43.0562917838905]},"properties":{"Publication_Year":2002,"Author":"Forbes, Curdella","Title":"Songs of silence","Publication_Title":null,"Date":"2002","Publisher":"Heinemann Educational","Place":"Oxford; Portsmouth, NH","Language":"English","Genre_":null,"Link_Attachments":null,"Automatic_Tags":null,"ObjectId":149}},{"type":"Feature","id":150,"geometry":{"type":"Point","coordinates":[-1.25762862282567,51.7519826571134]},"properties":{"Publication_Year":2002,"Author":"Ramsay, Paulette","Title":"Aunt Jen","Publication_Title":null,"Date":"2002","Publisher":"Heinemann","Place":"Oxford","Language":"English","Genre_":null,"Link_Attachments":null,"Automatic_Tags":null,"ObjectId":150}},{"type":"Feature","id":151,"geometry":{"type":"Point","coordinates":[-1.25762862282567,51.7519826571134]},"properties":{"Publication_Year":2003,"Author":"Jenkins, Edward; Dabydeen, David","Title":"Lutchmee and Dilloo: a study of West Indian life","Publication_Title":null,"Date":"2003","Publisher":"Macmillan Education","Place":"Oxford","Language":"English","Genre_":null,"Link_Attachments":null,"Automatic_Tags":null,"ObjectId":151}},{"type":"Feature","id":152,"geometry":{"type":"Point","coordinates":[-1.55026794113243,53.8007185979777]},"properties":{"Publication_Year":2001,"Author":"Gilroy, Beryl","Title":"The green grass tango","Publication_Title":null,"Date":"2001","Publisher":"Peepal Tree","Place":"Leeds, England","Language":"English","Genre_":null,"Link_Attachments":null,"Automatic_Tags":null,"ObjectId":152}},{"type":"Feature","id":153,"geometry":{"type":"Point","coordinates":[-1.55026794113243,53.8007185979777]},"properties":{"Publication_Year":2002,"Author":"Shinebourne, Janice","Title":"The last English plantation","Publication_Title":null,"Date":"2002","Publisher":"Peepal Tree","Place":"Leeds, England","Language":"English","Genre_":null,"Link_Attachments":null,"Automatic_Tags":null,"ObjectId":153}},{"type":"Feature","id":154,"geometry":{"type":"Point","coordinates":[-1.55026794113243,53.8007185979777]},"properties":{"Publication_Year":2003,"Author":"Philp, Geoffrey","Title":"Benjamin, my son","Publication_Title":null,"Date":"2003","Publisher":"Peepal Tree Press","Place":"Leeds","Language":"English","Genre_":null,"Link_Attachments":null,"Automatic_Tags":null,"ObjectId":154}},{"type":"Feature","id":155,"geometry":{"type":"Point","coordinates":[-1.55026794113243,53.8007185979777]},"properties":{"Publication_Year":2002,"Author":"Kempadoo, Peter","Title":"Guyana boy","Publication_Title":null,"Date":"2002","Publisher":"Peepal Tree","Place":"Leeds, England","Language":"English","Genre_":null,"Link_Attachments":null,"Automatic_Tags":null,"ObjectId":155}},{"type":"Feature","id":156,"geometry":{"type":"Point","coordinates":[-86.53480000002,39.1666000000031]},"properties":{"Publication_Year":2003,"Author":"Besson, Sherwyn","Title":"Rationed freedoms","Publication_Title":null,"Date":"2003","Publisher":"Sherwyn Besson","Place":"Bloomington, IN","Language":"English","Genre_":null,"Link_Attachments":null,"Automatic_Tags":null,"ObjectId":156}},{"type":"Feature","id":157,"geometry":{"type":"Point","coordinates":[-71.4313400001689,42.487359999909]},"properties":{"Publication_Year":2004,"Author":"McKay, Claude; Naipaul, V. S; Walcott, Derek; Girdharry, Arnold R; James, C. L. R; Mittelh??lzer, Edgar; Carew, Jan R; Selvon, Samuel; Braithwaite, E. R","Title":"Anthology of Caribbean literature","Publication_Title":null,"Date":"2004","Publisher":"Copley Custom Pub. Group","Place":"Acton, MA","Language":"English","Genre_":null,"Link_Attachments":null,"Automatic_Tags":null,"ObjectId":157}},{"type":"Feature","id":158,"geometry":{"type":"Point","coordinates":[-0.12769869318213,51.5074083600845]},"properties":{"Publication_Year":2003,"Author":"Mayo, Margaret","Title":"The giant sea serpent: and, the unicorn","Publication_Title":null,"Date":"2003","Publisher":"Orchard","Place":"London","Language":"English","Genre_":null,"Link_Attachments":null,"Automatic_Tags":null,"ObjectId":158}},{"type":"Feature","id":159,"geometry":{"type":"Point","coordinates":[-55.1654200000263,5.82031000036112]},"properties":{"Publication_Year":2003,"Author":"Rappa; Van Aerde-Milzink, Patricia; Parabirsing, Robby Jonathan","Title":"As a friend -: and other stories","Publication_Title":null,"Date":"2003","Publisher":"RALICON (RAppa's LIterature CONsultancy)","Place":"Paramaribo, Suriname","Language":"English","Genre_":null,"Link_Attachments":null,"Automatic_Tags":null,"ObjectId":159}},{"type":"Feature","id":160,"geometry":{"type":"Point","coordinates":[-74.6300791864743,40.362488812516]},"properties":{"Publication_Year":2003,"Author":"Perkins, Cyrus Francis; Lovejoy, Paul E; Shepherd, Verene; Trotman, David","Title":"Busha's mistress, or, Catherine the fugitive: a stirring romance of the days of slavery in Jamaica","Publication_Title":null,"Date":"2003","Publisher":"Ian Randle Publishers ; Markus Wiener Publisher","Place":"Kingston; Princeton, NJ","Language":"English","Genre_":null,"Link_Attachments":null,"Automatic_Tags":null,"ObjectId":160}},{"type":"Feature","id":161,"geometry":{"type":"Point","coordinates":[-1.09115646266809,50.7968391132746]},"properties":{"Publication_Year":2004,"Author":"Imoja, Nailah Folami","Title":"Pick of the crop: a novella","Publication_Title":null,"Date":"2004","Publisher":"Heinemann","Place":"Oxford [England]; Portsmouth, NH","Language":"English","Genre_":null,"Link_Attachments":null,"Automatic_Tags":null,"ObjectId":161}},{"type":"Feature","id":162,"geometry":{"type":"Point","coordinates":[-70.7721699996857,43.0706600001709]},"properties":{"Publication_Year":2005,"Author":"Roberts-Squires, Maria","Title":"October all over","Publication_Title":null,"Date":"2005","Publisher":"Heinemann","Place":"Portsmouth, NH","Language":"English","Genre_":null,"Link_Attachments":null,"Automatic_Tags":null,"ObjectId":162}},{"type":"Feature","id":163,"geometry":{"type":"Point","coordinates":[-0.12769869318213,51.5074083600845]},"properties":{"Publication_Year":1981,"Author":"King, Deborah","Title":"Sirius and Saba","Publication_Title":null,"Date":"1981","Publisher":"Hamilton","Place":"London","Language":"English","Genre_":null,"Link_Attachments":null,"Automatic_Tags":null,"ObjectId":163}},{"type":"Feature","id":164,"geometry":{"type":"Point","coordinates":[-61.5160299997867,10.661030000328]},"properties":{"Publication_Year":1975,"Author":"Giuseppi, Undine","Title":"The lights of Divali and other stories","Publication_Title":null,"Date":"1975","Publisher":"Key Caribbean Pub.","Place":"Port of Spain, Trinidad and Tobago","Language":"English","Genre_":null,"Link_Attachments":null,"Automatic_Tags":null,"ObjectId":164}},{"type":"Feature","id":165,"geometry":{"type":"Point","coordinates":[-0.12769869318213,51.5074083600845]},"properties":{"Publication_Year":1974,"Author":"Harris, Wilson","Title":"The eye of the scarecrow","Publication_Title":null,"Date":"1974","Publisher":"Faber and Faber","Place":"London","Language":"English","Genre_":null,"Link_Attachments":null,"Automatic_Tags":null,"ObjectId":165}},{"type":"Feature","id":166,"geometry":{"type":"Point","coordinates":[-61.5160299997867,10.661030000328]},"properties":{"Publication_Year":1976,"Author":"O'Callaghan, Marion","Title":"J'ouvert morning","Publication_Title":null,"Date":"1976","Publisher":"Columbus Publishers","Place":"Port of Spain, Trinidad","Language":"English","Genre_":null,"Link_Attachments":null,"Automatic_Tags":null,"ObjectId":166}},{"type":"Feature","id":167,"geometry":{"type":"Point","coordinates":[-0.12769869318213,51.5074083600845]},"properties":{"Publication_Year":1985,"Author":"Orr, Katherine","Title":"Leroy the lobster","Publication_Title":null,"Date":"1985","Publisher":"Macmillan Caribbean","Place":"London","Language":"English","Genre_":null,"Link_Attachments":null,"Automatic_Tags":null,"ObjectId":167}},{"type":"Feature","id":168,"geometry":{"type":"Point","coordinates":[0.0957355600897646,51.7687983250265]},"properties":{"Publication_Year":1987,"Author":"Selvon, Samuel","Title":"Ways of sunlight","Publication_Title":null,"Date":"1987","Publisher":"Longman","Place":"Harlow, Essex, England","Language":"English","Genre_":null,"Link_Attachments":null,"Automatic_Tags":null,"ObjectId":168}},{"type":"Feature","id":169,"geometry":{"type":"Point","coordinates":[-0.12769869318213,51.5074083600845]},"properties":{"Publication_Year":1986,"Author":"Lessac, Fran??; Jackson, Jan","Title":"The dragon of Redonda","Publication_Title":null,"Date":"1986","Publisher":"Macmillan Caribbean","Place":"London","Language":"English","Genre_":null,"Link_Attachments":null,"Automatic_Tags":null,"ObjectId":169}},{"type":"Feature","id":170,"geometry":{"type":"Point","coordinates":[-74.0071400003009,40.7145500001758]},"properties":{"Publication_Year":1986,"Author":"Kincaid, Jamaica","Title":"Annie John","Publication_Title":null,"Date":"1986","Publisher":"New American Library","Place":"New York","Language":"English","Genre_":null,"Link_Attachments":null,"Automatic_Tags":null,"ObjectId":170}},{"type":"Feature","id":171,"geometry":{"type":"Point","coordinates":[-1.55026794113243,53.8007185979777]},"properties":{"Publication_Year":1986,"Author":"Khan, Ismith","Title":"The crucifixion","Publication_Title":null,"Date":"1986","Publisher":"Peepal Tree Press","Place":"Leeds, Yorkshire","Language":"English","Genre_":null,"Link_Attachments":null,"Automatic_Tags":null,"ObjectId":171}},{"type":"Feature","id":172,"geometry":{"type":"Point","coordinates":[-1.55026794113243,53.8007185979777]},"properties":{"Publication_Year":1989,"Author":"Dabydeen, Cyril","Title":"The wizard swami","Publication_Title":null,"Date":"1989","Publisher":"Peepal Tree Press","Place":"Leeds","Language":"English","Genre_":null,"Link_Attachments":null,"Automatic_Tags":null,"ObjectId":172}},{"type":"Feature","id":173,"geometry":{"type":"Point","coordinates":[-1.50000000009065,54.0000000000003]},"properties":{"Publication_Year":1989,"Author":"Persaud, Sasenarine","Title":"Dear death","Publication_Title":null,"Date":"1989","Publisher":"Peepal Tree","Place":"Yorkshire, England","Language":"English","Genre_":null,"Link_Attachments":null,"Automatic_Tags":null,"ObjectId":173}},{"type":"Feature","id":174,"geometry":{"type":"Point","coordinates":[-74.0071400003009,40.7145500001758]},"properties":{"Publication_Year":1988,"Author":"0Garc??a M??rquez, Gabriel","Title":"Love in the time of cholera","Publication_Title":null,"Date":"1988","Publisher":"Alfred A. Knopf","Place":"New York","Language":"English","Genre_":null,"Link_Attachments":null,"Automatic_Tags":null,"ObjectId":174}},{"type":"Feature","id":175,"geometry":{"type":"Point","coordinates":[-1.55026794113243,53.8007185979777]},"properties":{"Publication_Year":1989,"Author":"Dabydeen, Cyril","Title":"Dark swirl","Publication_Title":null,"Date":"1989","Publisher":"Peepal Tree","Place":"Leeds, Yorkshire, England","Language":"English","Genre_":null,"Link_Attachments":null,"Automatic_Tags":null,"ObjectId":175}},{"type":"Feature","id":176,"geometry":{"type":"Point","coordinates":[-74.0071400003009,40.7145500001758]},"properties":{"Publication_Year":1990,"Author":"Naipaul, V. S","Title":"Guerrillas","Publication_Title":null,"Date":"1990","Publisher":"Vintage Books","Place":"New York","Language":"English","Genre_":null,"Link_Attachments":null,"Automatic_Tags":null,"ObjectId":176}},{"type":"Feature","id":177,"geometry":{"type":"Point","coordinates":[-0.478920560272808,51.4886953208176]},"properties":{"Publication_Year":1991,"Author":"O'Dell, Scott","Title":"My name is not Angelica","Publication_Title":null,"Date":"1991","Publisher":"Viking Children's","Place":"Harmondsworth","Language":"English","Genre_":null,"Link_Attachments":null,"Automatic_Tags":null,"ObjectId":177}},{"type":"Feature","id":178,"geometry":{"type":"Point","coordinates":[-0.12769869318213,51.5074083600845]},"properties":{"Publication_Year":1991,"Author":"Callender, Timothy","Title":"It so happen","Publication_Title":null,"Date":"1991","Publisher":"Heinemann","Place":"London","Language":"English","Genre_":null,"Link_Attachments":null,"Automatic_Tags":null,"ObjectId":178}},{"type":"Feature","id":179,"geometry":{"type":"Point","coordinates":[-76.7882700000323,17.970919999744]},"properties":{"Publication_Year":1990,"Author":"Craig, Christine; Haynes-Peart, Andrea","Title":"The bird gang","Publication_Title":null,"Date":"1990","Publisher":"Heinemann Caribbean","Place":"Kingston, Jamaica","Language":"English","Genre_":null,"Link_Attachments":null,"Automatic_Tags":null,"ObjectId":179}},{"type":"Feature","id":180,"geometry":{"type":"Point","coordinates":[116.397229999573,39.9075000002538]},"properties":{"Publication_Year":1991,"Author":null,"Title":"Contemporary Chinese women writers. 2. 2.","Publication_Title":null,"Date":"1991","Publisher":"Chinese Literature Press : Distributed by China International Book Trading Corp.","Place":"Beijing, China","Language":"Short stories translated from Chinese to English","Genre_":null,"Link_Attachments":null,"Automatic_Tags":null,"ObjectId":180}},{"type":"Feature","id":181,"geometry":{"type":"Point","coordinates":[-70.7952798862084,43.0562917838905]},"properties":{"Publication_Year":1992,"Author":"Maharaj, Clem","Title":"The dispossessed","Publication_Title":null,"Date":"1992","Publisher":"Heinemann ; Heinemann Educational Books","Place":"Oxford; Portsmouth, N.H.","Language":"English","Genre_":null,"Link_Attachments":null,"Automatic_Tags":null,"ObjectId":181}},{"type":"Feature","id":182,"geometry":{"type":"Point","coordinates":[-0.12769869318213,51.5074083600845]},"properties":{"Publication_Year":1990,"Author":"Marlee, Paul","Title":"Guinea-pig","Publication_Title":null,"Date":"1990","Publisher":"Karnak","Place":"London","Language":"English","Genre_":null,"Link_Attachments":null,"Automatic_Tags":null,"ObjectId":182}},{"type":"Feature","id":183,"geometry":{"type":"Point","coordinates":[-70.7952798862084,43.0562917838905]},"properties":{"Publication_Year":1991,"Author":"Edgell, Zee","Title":"In times like these","Publication_Title":null,"Date":"1991","Publisher":"Heinemann International Literature and Textbooks","Place":"Oxford; Portsmouth, NH","Language":"English","Genre_":null,"Link_Attachments":null,"Automatic_Tags":null,"ObjectId":183}},{"type":"Feature","id":184,"geometry":{"type":"Point","coordinates":[-0.12769869318213,51.5074083600845]},"properties":{"Publication_Year":1991,"Author":"Phillips, Caryl","Title":"Cambridge.","Publication_Title":null,"Date":"1991","Publisher":"Bloombury","Place":"London","Language":"English","Genre_":null,"Link_Attachments":null,"Automatic_Tags":null,"ObjectId":184}},{"type":"Feature","id":185,"geometry":{"type":"Point","coordinates":[-1.55026794113243,53.8007185979777]},"properties":{"Publication_Year":1992,"Author":"Monar, Rooplall","Title":"High house and radio","Publication_Title":null,"Date":"1992","Publisher":"Peepal Tree","Place":"Leeds, Yorkshire, England","Language":"English","Genre_":null,"Link_Attachments":null,"Automatic_Tags":null,"ObjectId":185}},{"type":"Feature","id":186,"geometry":{"type":"Point","coordinates":[-1.55026794113243,53.8007185979777]},"properties":{"Publication_Year":1992,"Author":"Persaud, Sasenarine","Title":"The ghost of Bellow's man","Publication_Title":null,"Date":"1992","Publisher":"Peepal Tree","Place":"Leeds, England","Language":"English","Genre_":null,"Link_Attachments":null,"Automatic_Tags":null,"ObjectId":186}},{"type":"Feature","id":187,"geometry":{"type":"Point","coordinates":[-1.55026794113243,53.8007185979777]},"properties":{"Publication_Year":1992,"Author":"Williams, N. D","Title":"The crying of rainbirds","Publication_Title":null,"Date":"1992","Publisher":"Peepal Tree Press","Place":"Leeds, Yorkshire","Language":"English","Genre_":null,"Link_Attachments":null,"Automatic_Tags":null,"ObjectId":187}},{"type":"Feature","id":188,"geometry":{"type":"Point","coordinates":[-77.3407500002706,25.0774399995996]},"properties":{"Publication_Year":1992,"Author":"Klonaris, Helen; Sweeting, Lynn","Title":"WomanSpeak: a collection of creative expressions","Publication_Title":null,"Date":"1992","Publisher":"WomenSpeak Press","Place":"Nassau, Bahamas","Language":"English","Genre_":null,"Link_Attachments":null,"Automatic_Tags":null,"ObjectId":188}},{"type":"Feature","id":189,"geometry":{"type":"Point","coordinates":[-1.55026794113243,53.8007185979777]},"properties":{"Publication_Year":1994,"Author":"Williams, Noel","Title":"The silence of islands","Publication_Title":null,"Date":"1994","Publisher":"Peepal Tree","Place":"Leeds, Yorkshire, England","Language":"English","Genre_":null,"Link_Attachments":null,"Automatic_Tags":null,"ObjectId":189}},{"type":"Feature","id":190,"geometry":{"type":"Point","coordinates":[-1.25762862282567,51.7519826571134]},"properties":{"Publication_Year":1994,"Author":"Powell, Patricia","Title":"A small gathering of bones","Publication_Title":null,"Date":"1994","Publisher":"Heinemann","Place":"Oxford","Language":"English","Genre_":null,"Link_Attachments":null,"Automatic_Tags":null,"ObjectId":190}},{"type":"Feature","id":191,"geometry":{"type":"Point","coordinates":[-70.7952798862084,43.0562917838905]},"properties":{"Publication_Year":1994,"Author":"Thomas, H. Nigel","Title":"Spirits in the dark","Publication_Title":null,"Date":"1994","Publisher":"Heinemann","Place":"Oxford; Portsmouth, N.H.","Language":"English","Genre_":null,"Link_Attachments":null,"Automatic_Tags":null,"ObjectId":191}},{"type":"Feature","id":192,"geometry":{"type":"Point","coordinates":[-1.55026794113243,53.8007185979777]},"properties":{"Publication_Year":1994,"Author":"Khemraj, Harischandra","Title":"Cosmic dance","Publication_Title":null,"Date":"1994","Publisher":"Peepal Tree","Place":"Leeds, Yorkshire, England","Language":"English","Genre_":null,"Link_Attachments":null,"Automatic_Tags":null,"ObjectId":192}},{"type":"Feature","id":193,"geometry":{"type":"Point","coordinates":[-1.55026794113243,53.8007185979777]},"properties":{"Publication_Year":1994,"Author":"Khan, Ismith","Title":"A day in the country and other stories","Publication_Title":null,"Date":"1994","Publisher":"Peepal Tree","Place":"Leeds, Yorkshire, England","Language":"English","Genre_":null,"Link_Attachments":null,"Automatic_Tags":null,"ObjectId":193}},{"type":"Feature","id":194,"geometry":{"type":"Point","coordinates":[-1.50000000009065,54.0000000000003]},"properties":{"Publication_Year":1994,"Author":"Shewcharan, Narmala","Title":"Tomorrow is another day","Publication_Title":null,"Date":"1994","Publisher":"Peepal Tree","Place":"Yorkshire, England","Language":"English","Genre_":null,"Link_Attachments":null,"Automatic_Tags":null,"ObjectId":194}},{"type":"Feature","id":195,"geometry":{"type":"Point","coordinates":[-75.5975699999205,42.4420800002057]},"properties":{"Publication_Year":1994,"Author":"Behn, Aphra; Salzman, Paul","Title":"Oroonoko, and other writings","Publication_Title":null,"Date":"1994","Publisher":"Oxford University Press","Place":"Oxford; New York","Language":"English","Genre_":null,"Link_Attachments":null,"Automatic_Tags":null,"ObjectId":195}},{"type":"Feature","id":196,"geometry":{"type":"Point","coordinates":[-74.0071400003009,40.7145500001758]},"properties":{"Publication_Year":1995,"Author":"Breton, Marcela","Title":"Rhythm & revolt: tales of the Antilles","Publication_Title":null,"Date":"1995","Publisher":"Plume","Place":"New York, N.Y., U.S.A.","Language":"English","Genre_":null,"Link_Attachments":null,"Automatic_Tags":null,"ObjectId":196}},{"type":"Feature","id":197,"geometry":{"type":"Point","coordinates":[-73.3841800001623,43.0281400000906]},"properties":{"Publication_Year":1995,"Author":"Stevenson, Robert Louis; McGuinn, Nicholas","Title":"Treasure Island","Publication_Title":null,"Date":"1995","Publisher":"Cambridge University Press","Place":"Cambridge; New York","Language":"English","Genre_":null,"Link_Attachments":null,"Automatic_Tags":null,"ObjectId":197}},{"type":"Feature","id":198,"geometry":{"type":"Point","coordinates":[-61.5160299997867,10.661030000328]},"properties":{"Publication_Year":1995,"Author":"Espinet, Neil Desmond","Title":"Great balls of tar: the pollution of La Trinity","Publication_Title":null,"Date":"1995","Publisher":"Caribbean Information Sytems & Services","Place":"Port of Spain, Trinidad","Language":"English","Genre_":null,"Link_Attachments":null,"Automatic_Tags":null,"ObjectId":198}},{"type":"Feature","id":199,"geometry":{"type":"Point","coordinates":[118.7777800004,32.0616699996854]},"properties":{"Publication_Year":1995,"Author":"Chu, Hung; Meuser, Carol","Title":"Festival of flowers: essays by contemporary Chinese women writers","Publication_Title":null,"Date":"1995","Publisher":"Yilin Press","Place":"Nanjing, People's Republic of China","Language":"In English; includes some text in Chinese characters","Genre_":null,"Link_Attachments":null,"Automatic_Tags":null,"ObjectId":199}},{"type":"Feature","id":200,"geometry":{"type":"Point","coordinates":[-1.55026794113243,53.8007185979777]},"properties":{"Publication_Year":1994,"Author":"Dawes, Kwame Senu Neville","Title":"Progeny of air","Publication_Title":null,"Date":"1994","Publisher":"Peepal Tree","Place":"Leeds, England","Language":"English","Genre_":null,"Link_Attachments":null,"Automatic_Tags":null,"ObjectId":200}},{"type":"Feature","id":201,"geometry":{"type":"Point","coordinates":[-73.6350899998484,40.7264499998716]},"properties":{"Publication_Year":1929,"Author":"Minchin, H. Cotton","Title":"Legion: the book of the British Legion","Publication_Title":null,"Date":"1929","Publisher":"Doubleday, Doran & Company, Inc.","Place":"Garden City, New York","Language":"English","Genre_":null,"Link_Attachments":null,"Automatic_Tags":null,"ObjectId":201}},{"type":"Feature","id":202,"geometry":{"type":"Point","coordinates":[-58.1612499999975,6.80858999976973]},"properties":{"Publication_Year":1951,"Author":"Seymour, A. J","Title":"Caribbean literature.","Publication_Title":null,"Date":"1951","Publisher":null,"Place":"Georgetown?] British Guiana","Language":"English","Genre_":null,"Link_Attachments":null,"Automatic_Tags":null,"ObjectId":202}},{"type":"Feature","id":203,"geometry":{"type":"Point","coordinates":[-58.1612499999975,6.80858999976973]},"properties":{"Publication_Year":1946,"Author":"Seymour, Arthur James; MacDonald, Ian","Title":"Kyk-Over-Al","Publication_Title":null,"Date":"1946","Publisher":"B.G. Writers' Association","Place":"Georgetown, Guyana","Language":"English","Genre_":null,"Link_Attachments":null,"Automatic_Tags":null,"ObjectId":203}},{"type":"Feature","id":204,"geometry":{"type":"Point","coordinates":[-58.1612499999975,6.80858999976973]},"properties":{"Publication_Year":1945,"Author":"British Guiana Writers' Association; Kykoveral (Guyana)","Title":"Kyk-over-Al.","Publication_Title":null,"Date":"1945","Publisher":"publisher not identified","Place":"Georgetown, Guyana","Language":"English","Genre_":" Genre:","Link_Attachments":null,"Automatic_Tags":null,"ObjectId":204}},{"type":"Feature","id":205,"geometry":{"type":"Point","coordinates":[-111.855790000186,39.8190799997309]},"properties":{"Publication_Year":1982,"Author":"Brathwaite, Kamau","Title":"National language poetry","Publication_Title":null,"Date":"1982","Publisher":"E.K. Brathwaite","Place":"Mona","Language":"English","Genre_":null,"Link_Attachments":null,"Automatic_Tags":null,"ObjectId":205}},{"type":"Feature","id":206,"geometry":{"type":"Point","coordinates":[-76.7882700000323,17.970919999744]},"properties":{"Publication_Year":1971,"Author":"Brathwaite, Kamau; Ramchand, Kenneth; Salkey, Andrew; Caribbean Artists Movement","Title":"New writing, 1970","Publication_Title":null,"Date":"1971","Publisher":"Caribbean Artists Movement","Place":"Kingston [Jamaica","Language":"English","Genre_":null,"Link_Attachments":null,"Automatic_Tags":null,"ObjectId":206}},{"type":"Feature","id":207,"geometry":{"type":"Point","coordinates":[-89.3864399997889,43.0731300000607]},"properties":{"Publication_Year":1993,"Author":"Brathwaite, Kamau","Title":"The Zea Mexican diary, 7 Sept 1926-7 Sept 1986","Publication_Title":null,"Date":"1993","Publisher":"University of Wisconsin Press","Place":"Madison, Wis.","Language":"English","Genre_":null,"Link_Attachments":null,"Automatic_Tags":null,"ObjectId":207}},{"type":"Feature","id":208,"geometry":{"type":"Point","coordinates":[-76.7427600002659,18.0124500001026]},"properties":{"Publication_Year":1993,"Author":"Brathwaite, Kamau; Morris, Mervyn; Goodison, Lorna; Chang, Victor L; University of the West Indies (Mona, Jamaica); Institute of Caribbean Studies","Title":"Three Caribbean poets on their work","Publication_Title":null,"Date":"1993","Publisher":"Institute of Caribbean Studies","Place":"Mona, Jamaica","Language":"English","Genre_":null,"Link_Attachments":null,"Automatic_Tags":null,"ObjectId":208}},{"type":"Feature","id":209,"geometry":{"type":"Point","coordinates":[-74.0071400003009,40.7145500001758]},"properties":{"Publication_Year":1995,"Author":"Brathwaite, Kamau","Title":"English Caribbean literature and arts.","Publication_Title":null,"Date":"1995","Publisher":"Americas Society","Place":"New York, NY","Language":"English","Genre_":null,"Link_Attachments":null,"Automatic_Tags":null,"ObjectId":209}},{"type":"Feature","id":210,"geometry":{"type":"Point","coordinates":[-74.0752700002313,40.642419999851]},"properties":{"Publication_Year":1999,"Author":"Brathwaite, Kamau; Mackey, Nathaniel; Funkhouser, Chris","Title":"Conversations with Nathaniel Mackey","Publication_Title":null,"Date":"1999","Publisher":"We Press","Place":"Staten Island, NY","Language":"English","Genre_":null,"Link_Attachments":null,"Automatic_Tags":null,"ObjectId":210}},{"type":"Feature","id":211,"geometry":{"type":"Point","coordinates":[-76.7882700000323,17.970919999744]},"properties":{"Publication_Year":1973,"Author":"Brathwaite, Kamau; Caribbean Artists Movement","Title":"Tribute to Frank Collymore","Publication_Title":null,"Date":"1973","Publisher":"Caribbean Artists Movement","Place":"Kingston [Jamaica","Language":"English","Genre_":null,"Link_Attachments":null,"Automatic_Tags":null,"ObjectId":211}},{"type":"Feature","id":212,"geometry":{"type":"Point","coordinates":[-0.12769869318213,51.5074083600845]},"properties":{"Publication_Year":1984,"Author":"Brathwaite, Kamau","Title":"History of the voice: the development of nation language in anglophone Carribean poetry","Publication_Title":null,"Date":"1984","Publisher":"New Beacon","Place":"London","Language":"English","Genre_":null,"Link_Attachments":null,"Automatic_Tags":null,"ObjectId":212}},{"type":"Feature","id":213,"geometry":{"type":"Point","coordinates":[-83.7484699998585,42.2820999997885]},"properties":{"Publication_Year":1993,"Author":"Brathwaite, Kamau","Title":"Roots","Publication_Title":null,"Date":"1993","Publisher":"Univ. of Michigan Press","Place":"Ann Arbor","Language":"English","Genre_":null,"Link_Attachments":null,"Automatic_Tags":null,"ObjectId":213}},{"type":"Feature","id":214,"geometry":{"type":"Point","coordinates":[76.6530300003457,12.3090600002969]},"properties":{"Publication_Year":1984,"Author":"Brathwaite, Kamau","Title":"The colonial encounter: language","Publication_Title":null,"Date":"1984","Publisher":"Center for Commonwealth Lit and Research","Place":"Mysore","Language":"English","Genre_":null,"Link_Attachments":null,"Automatic_Tags":null,"ObjectId":214}},{"type":"Feature","id":215,"geometry":{"type":"Point","coordinates":[-76.7882700000323,17.970919999744]},"properties":{"Publication_Year":2002,"Author":"Brathwaite, Kamau","Title":"Kamau monograph.","Publication_Title":null,"Date":"2002","Publisher":"The University of The West Indies","Place":"Kingston, Jamaica","Language":"English","Genre_":null,"Link_Attachments":null,"Automatic_Tags":null,"ObjectId":215}},{"type":"Feature","id":216,"geometry":{"type":"Point","coordinates":[-0.12769869318213,51.5074083600845]},"properties":{"Publication_Year":1993,"Author":"Walcott, Derek; Brown, Wayne","Title":"Selected poetry","Publication_Title":null,"Date":"1993","Publisher":"Heinemann","Place":"London","Language":"English","Genre_":null,"Link_Attachments":null,"Automatic_Tags":null,"ObjectId":216}},{"type":"Feature","id":217,"geometry":{"type":"Point","coordinates":[-90.1804499999257,32.2988700001345]},"properties":{"Publication_Year":1996,"Author":"Walcott, Derek; Baer, William","Title":"Conversations with Derek Walcott","Publication_Title":null,"Date":"1996","Publisher":"University Press of Mississippi","Place":"Jackson","Language":"English","Genre_":null,"Link_Attachments":null,"Automatic_Tags":null,"ObjectId":217}},{"type":"Feature","id":218,"geometry":{"type":"Point","coordinates":[-74.0071400003009,40.7145500001758]},"properties":{"Publication_Year":2000,"Author":"Walcott, Derek","Title":"Tiepolo's hound","Publication_Title":null,"Date":"2000","Publisher":"Farrar, Straus, and Giroux","Place":"New York","Language":"English","Genre_":null,"Link_Attachments":null,"Automatic_Tags":null,"ObjectId":218}},{"type":"Feature","id":219,"geometry":{"type":"Point","coordinates":[-77.043410000203,38.804600000342]},"properties":{"Publication_Year":1988,"Author":"Walcott, Derek; Moyers, Bill D; Public Affairs Television (Firm), PBS Video","Title":"Derek Walcott","Publication_Title":null,"Date":"1988","Publisher":"PBS Video","Place":"Alexandria, Va.","Language":"English","Genre_":null,"Link_Attachments":null,"Automatic_Tags":null,"ObjectId":219}},{"type":"Feature","id":220,"geometry":{"type":"Point","coordinates":[-74.0071400003009,40.7145500001758]},"properties":{"Publication_Year":1986,"Author":"Walcott, Derek","Title":"Collected poems, 1948-1984","Publication_Title":null,"Date":"1986","Publisher":"Farrar, Straus & Giroux","Place":"New York","Language":"English","Genre_":null,"Link_Attachments":"https://www.amazon.com/Collected-Poems-1948-1984-Derek-Walcott/dp/0374520259/ref=pd_sbs_2/135-4202855-4945718?pd_rd_w=RMZvL&pf_rd_p=3676f086-9496-4fd7-8490-77cf7f43f846&pf_rd_r=FEK2ATCY9N4M0KT8VKTM&pd_rd_r=2484dd9d-0153-4193-aef5-76a00fb41f60&pd_rd_wg=zIOBD&pd_rd_i=0374520259&psc=1","Automatic_Tags":null,"ObjectId":220}},{"type":"Feature","id":221,"geometry":{"type":"Point","coordinates":[-74.0071400003009,40.7145500001758]},"properties":{"Publication_Year":1997,"Author":"Walcott, Derek","Title":"The bounty","Publication_Title":null,"Date":"1997","Publisher":"Farrar, Straus, Giroux","Place":"New York","Language":"English","Genre_":null,"Link_Attachments":null,"Automatic_Tags":null,"ObjectId":221}},{"type":"Feature","id":222,"geometry":{"type":"Point","coordinates":[-74.0071400003009,40.7145500001758]},"properties":{"Publication_Year":1999,"Author":"Walcott, Derek","Title":"What the twilight says: essays","Publication_Title":null,"Date":"1999","Publisher":"Farrar, Straus, and Giroux","Place":"New York","Language":"English","Genre_":null,"Link_Attachments":"https://www.amazon.com/What-Twilight-Says-Derek-Walcott/dp/0374526834/ref=sr_1_3?crid=35V0Z77U12X3W&keywords=derek+walcott&qid=1636928706&sprefix=derek+walcot%2Caps%2C221&sr=8-3; https://www.amazon.com/What-Twilight-Says-Derek-Walcott/dp/0374526834/ref=sr_1_3?keywords=derek+walcott&qid=1636931451&sr=8-3","Automatic_Tags":null,"ObjectId":222}},{"type":"Feature","id":223,"geometry":{"type":"Point","coordinates":[-74.0071400003009,40.7145500001758]},"properties":{"Publication_Year":2004,"Author":"Walcott, Derek","Title":"The prodigal","Publication_Title":null,"Date":"2004","Publisher":"Farrar, Straus and Giroux","Place":"New York","Language":"English","Genre_":null,"Link_Attachments":null,"Automatic_Tags":null,"ObjectId":223}},{"type":"Feature","id":224,"geometry":{"type":"Point","coordinates":[-61.560999999778,10.7237400000079]},"properties":{"Publication_Year":2000,"Author":null,"Title":"Crick ... crack ... cricket!!: a humourous look at cricket","Publication_Title":null,"Date":"2000","Publisher":"Keensdee Productions : COTT","Place":"Diego Martin, Trinidad and Tobago","Language":"English","Genre_":null,"Link_Attachments":null,"Automatic_Tags":null,"ObjectId":224}},{"type":"Feature","id":225,"geometry":{"type":"Point","coordinates":[-61.560999999778,10.7237400000079]},"properties":{"Publication_Year":2000,"Author":null,"Title":"Las' lap: farewell to the nineties : the humour, poetry and storytelling","Publication_Title":null,"Date":"2000","Publisher":"Keensdee Productions : COTT","Place":"Diego Martin, Trinidad and Tobago","Language":"English","Genre_":null,"Link_Attachments":null,"Automatic_Tags":null,"ObjectId":225}},{"type":"Feature","id":226,"geometry":{"type":"Point","coordinates":[-61.560999999778,10.7237400000079]},"properties":{"Publication_Year":2002,"Author":null,"Title":"It's the little things: the poetry, humour, poetry and storytelling","Publication_Title":null,"Date":"2002","Publisher":"Keensdee Productions : COTT","Place":"Diego Martin, Trinidad and Tobago","Language":"English","Genre_":null,"Link_Attachments":null,"Automatic_Tags":null,"ObjectId":226}},{"type":"Feature","id":227,"geometry":{"type":"Point","coordinates":[-61.560999999778,10.7237400000079]},"properties":{"Publication_Year":2001,"Author":null,"Title":"The best of Paul Keens-Douglas. Vol. 2 Vol. 2","Publication_Title":null,"Date":"2001","Publisher":"Keensdee Productions : COTT","Place":"Diego Martin, Trinidad and Tobago","Language":"English","Genre_":null,"Link_Attachments":null,"Automatic_Tags":null,"ObjectId":227}},{"type":"Feature","id":228,"geometry":{"type":"Point","coordinates":[-61.560999999778,10.7237400000079]},"properties":{"Publication_Year":2003,"Author":null,"Title":"It' not easy: the best of Paul Keens-Douglas. Vol. 3 Vol. 3","Publication_Title":null,"Date":"2003","Publisher":"Keensdee Productions : COTT","Place":"Diego Martin, Trinidad and Tobago","Language":"English","Genre_":null,"Link_Attachments":null,"Automatic_Tags":null,"ObjectId":228}},{"type":"Feature","id":229,"geometry":{"type":"Point","coordinates":[-61.560999999778,10.7237400000079]},"properties":{"Publication_Year":2005,"Author":"Keens-Douglas, Paul; Williams, Dunstan E. (DEW); Maxwell, Marina Ama Omowale","Title":"Twice upon a time: poetry & short stories","Publication_Title":null,"Date":"2005","Publisher":"Keensdee Productions","Place":"Diego Martin, Trinidad and Tobago","Language":"English","Genre_":null,"Link_Attachments":null,"Automatic_Tags":null,"ObjectId":229}},{"type":"Feature","id":230,"geometry":{"type":"Point","coordinates":[-61.560999999778,10.7237400000079]},"properties":{"Publication_Year":2005,"Author":null,"Title":"My daddy ... is de best: stories for the family","Publication_Title":null,"Date":"2005","Publisher":"Keensdee Productions","Place":"Diego Martin, Trinidad and Tobago","Language":"English","Genre_":null,"Link_Attachments":null,"Automatic_Tags":null,"ObjectId":230}},{"type":"Feature","id":231,"geometry":{"type":"Point","coordinates":[-61.560999999778,10.7237400000079]},"properties":{"Publication_Year":2007,"Author":"Keens-Douglas, Paul","Title":"\"Well let me tell you ...\": an evening with Paul Keens-Douglas","Publication_Title":null,"Date":"2007","Publisher":"Keensdee Productions : COTT","Place":"Diego Martin, Trinidad and Tobago","Language":"English","Genre_":null,"Link_Attachments":null,"Automatic_Tags":null,"ObjectId":231}},{"type":"Feature","id":232,"geometry":{"type":"Point","coordinates":[-87.8315400000985,42.1305899996679]},