{"type":"FeatureCollection","features":[{"type":"Feature","properties":{"Publication_Year":2007,"Author":"??lvarez ??lvarez, Luis","Title":"El sue??o y el laberinto","bookImgId":"","Publication_Title":"","Date":2007,"Publisher":"Ediciones ??vila","Place":"Ciego de ??vila, Cuba","Language":"Spanish","Genre_":"","Link_Attachments":"","Automatic_Tags":"","ObjectId":10},"geometry":{"type":"Point","coordinates":[-78.53333,21.71667]}},{"type":"Feature","properties":{"Publication_Year":2007,"Author":"??lvarez ??lvarez, Luis","Title":"El sue??o y el laberinto","bookImgId":"","Publication_Title":"","Date":2007,"Publisher":"Ediciones ??vila","Place":"Ciego de ??vila, Cuba","Language":"Spanish","Genre_":"","Link_Attachments":"","Automatic_Tags":"","ObjectId":1051},"geometry":{"type":"Point","coordinates":[-78.53333,21.71667]}},{"type":"Feature","properties":{"Publication_Year":1988,"Author":"0Garc??a M??rquez, Gabriel","Title":"Love in the time of cholera","bookImgId":"","Publication_Title":"","Date":1988,"Publisher":"Alfred A. Knopf","Place":"New York","Language":"English","Genre_":"","Link_Attachments":"","Automatic_Tags":"","ObjectId":174},"geometry":{"type":"Point","coordinates":[-74.00714,40.71455]}},{"type":"Feature","properties":{"Publication_Year":1944,"Author":"Aarons, R. L. C.","Title":"The cow that laughed -- and other stories","bookImgId":"","Publication_Title":"","Date":1944,"Publisher":"Printed by Printers Ltd.","Place":"Kingston, Jamaica","Language":"en","Genre_":"","Link_Attachments":"https://www.dloc.com/AA00030535/00001/citation?search=caribbean+%3dliterature","Automatic_Tags":"","ObjectId":655},"geometry":{"type":"Point","coordinates":[-76.78827,17.97092]}},{"type":"Feature","properties":{"Publication_Year":1999,"Author":"Abad, c; Estevan, Ana","Title":"Cuentos er??ticos de Navidad","bookImgId":"","Publication_Title":"","Date":1999,"Publisher":"Tusquets Editores","Place":"Barcelona","Language":"Spanish","Genre_":"Original Pub Date:","Link_Attachments":"","Automatic_Tags":"","ObjectId":666},"geometry":{"type":"Point","coordinates":[2.17001,41.38804]}},{"type":"Feature","properties":{"Publication_Year":2001,"Author":"Adams, Robert","Title":"A love of reading: reviews of contemporary fiction","bookImgId":"","Publication_Title":"","Date":2001,"Publisher":"M&S","Place":"Toronto","Language":"English","Genre_":"","Link_Attachments":"","Automatic_Tags":"","ObjectId":827},"geometry":{"type":"Point","coordinates":[-79.38544,43.64869]}},{"type":"Feature","properties":{"Publication_Year":1997,"Author":"Adisa, Opal Palmer","Title":"It begins with tears","bookImgId":"","Publication_Title":"","Date":1997,"Publisher":"Heinemann","Place":"Oxford [England]; Portsmouth, NH, USA","Language":"English","Genre_":"Original Pub Date:","Link_Attachments":"","Automatic_Tags":"","ObjectId":134},"geometry":{"type":"Point","coordinates":[-70.79527989,43.05629178]}},{"type":"Feature","properties":{"Publication_Year":1927,"Author":"Alix, Juan Antonio","Title":"D??cimas: tomo lo.","bookImgId":"","Publication_Title":"","Date":1927,"Publisher":"Impr. de J.R. vda. Garc??a, sucesores","Place":"Santo Domingo, R.D.","Language":"Spanish","Genre_":"","Link_Attachments":"","Automatic_Tags":"","ObjectId":403},"geometry":{"type":"Point","coordinates":[-69.97491818,18.49902282]}},{"type":"Feature","properties":{"Publication_Year":1927,"Author":"Alix, Juan Antonio","Title":"D??cimas.","bookImgId":"","Publication_Title":"","Date":1927,"Publisher":"publisher not identified","Place":"Santo Domingo","Language":"Spanish","Genre_":"","Link_Attachments":"","Automatic_Tags":"","ObjectId":413},"geometry":{"type":"Point","coordinates":[-69.89139,18.47185]}},{"type":"Feature","properties":{"Publication_Year":2010,"Author":"Allende, Isabel; Merkerson, S. Epatha; Harper Audio (Firm)","Title":"Island beneath the sea","bookImgId":"","Publication_Title":"","Date":2010,"Publisher":"HarperCollins","Place":"New York","Language":"English","Genre_":"","Link_Attachments":"","Automatic_Tags":"","ObjectId":53},"geometry":{"type":"Point","coordinates":[-74.00714,40.71455]}},{"type":"Feature","properties":{"Publication_Year":1985,"Author":"Allfrey, P. Shand","Title":"The orchid house","bookImgId":"","Publication_Title":"","Date":1985,"Publisher":"Three Continents","Place":"Washington, D.C.","Language":"English","Genre_":"","Link_Attachments":"","Automatic_Tags":"","ObjectId":1888},"geometry":{"type":"Point","coordinates":[-77.03196,38.89037]}},{"type":"Feature","properties":{"Publication_Year":1982,"Author":"Allfrey, P. Shand","Title":"The orchid house","bookImgId":"","Publication_Title":"","Date":1982,"Publisher":"Virago","Place":"London","Language":"English","Genre_":"","Link_Attachments":"","Automatic_Tags":"","ObjectId":1889},"geometry":{"type":"Point","coordinates":[-0.1276986932,51.50740836]}},{"type":"Feature","properties":{"Publication_Year":0,"Author":"Allfrey, Phyllis Shand","Title":"The orchid house","bookImgId":"","Publication_Title":"","Date":0,"Publisher":"Virago","Place":"London","Language":"English","Genre_":"","Link_Attachments":"","Automatic_Tags":"","ObjectId":472},"geometry":{"type":"Point","coordinates":[-0.1276986932,51.50740836]}},{"type":"Feature","properties":{"Publication_Year":2016,"Author":"Allfrey, Phyllis Shand; Esprit, Schuyler","Title":"The Orchid House","bookImgId":"","Publication_Title":"","Date":"4/30/16","Publisher":"Papillote Press","Place":"S.l.","Language":"","Genre_":"","Link_Attachments":"http://www.amazon.com/Orchid-House-Phyllis-Shand-Allfrey/dp/0993108628/ref=sr_1_5_twi_pap_1?ie=UTF8&qid=1449595227&sr=8-5&keywords=orchid+house+allfrey","Automatic_Tags":"","ObjectId":5},"geometry":{"type":"Point","coordinates":[-66.32763,-33.29969]}},{"type":"Feature","properties":{"Publication_Year":1986,"Author":"Allfrey, Phyllis Shand; Wolfová, Zora","Title":"Dum mezi orchidejemi","bookImgId":"","Publication_Title":"","Date":1986,"Publisher":"Svoboda","Place":"Praha","Language":"Czech","Genre_":"","Link_Attachments":"","Automatic_Tags":"","ObjectId":1887},"geometry":{"type":"Point","coordinates":[14.43302,50.07913]}},{"type":"Feature","properties":{"Publication_Year":2004,"Author":"Almeida, Ir??ne Assiba d'; Augustave, Elsie","Title":"Guide de lecture, L'Enfant noir de Camara Laye","bookImgId":"","Publication_Title":"","Date":2004,"Publisher":"Wayside Publishing","Place":"Sandwich, MA","Language":"French","Genre_":"","Link_Attachments":"","Automatic_Tags":"","ObjectId":1012},"geometry":{"type":"Point","coordinates":[-70.50678,41.76532]}},{"type":"Feature","properties":{"Publication_Year":1988,"Author":"Amis, Martin; Cabrera Infante, Guillermo","Title":"La enfermedad del tiempo / Martin Amis. Listas / Guillermo Cabrera Infante","bookImgId":"","Publication_Title":"","Date":1988,"Publisher":"El Pa??s","Place":"Madrid","Language":"Spanish","Genre_":"","Link_Attachments":"","Automatic_Tags":"","ObjectId":1438},"geometry":{"type":"Point","coordinates":[-3.69196,40.41955]}},{"type":"Feature","properties":{"Publication_Year":2002,"Author":"AndoÌ„, Reinaldo Arenas; Tetsuyuki","Title":"夜明け前のセレスティーノ","bookImgId":"","Publication_Title":"","Date":"3/1/02","Publisher":"unknown","Place":"Tokio","Language":"Japanese","Genre_":"","Link_Attachments":"https://www.amazon.com/gp/product/4336040303/ref=dbs_a_def_rwt_hsch_vapi_taft_p2_i2","Automatic_Tags":"","ObjectId":2027},"geometry":{"type":"Point","coordinates":[139.6917161,35.68945633]}},{"type":"Feature","properties":{"Publication_Year":2003,"Author":"Adisa Andwele","Title":"Crop Over.","bookImgId":"aandwele4","Publication_Title":"","Date":2003,"Publisher":"WOW Caribbean","Place":"St. Michael, Barbados","Language":"English","Genre_":"","Link_Attachments":"","Automatic_Tags":"","ObjectId":252},"geometry":{"type":"Point","coordinates":[-59.61142,13.10532]}},{"type":"Feature","properties":{"Publication_Year":2002,"Author":"Adisa Andwele","Title":"Antiquity","bookImgId":"aandwele3","Publication_Title":"","Date":2002,"Publisher":"Peepal Tree","Place":"Leeds","Language":"English","Genre_":"","Link_Attachments":"","Automatic_Tags":"","ObjectId":253},"geometry":{"type":"Point","coordinates":[-1.550267941,53.8007186]}},{"type":"Feature","properties":{"Publication_Year":1990,"Author":"Adisa Andwele","Title":"Rhythm an' roots: a collection of poems","bookImgId":"aandwele1","Publication_Title":"","Date":1990,"Publisher":"publisher not identified","Place":"Barbados","Language":"English","Genre_":"","Link_Attachments":"","Automatic_Tags":"","ObjectId":456},"geometry":{"type":"Point","coordinates":[-59.55642448,13.17222198]}},{"type":"Feature","properties":{"Publication_Year":1989,"Author":"Adisa Andwele","Title":"Rhythm an' roots: a collection of poems","bookImgId":"","Publication_Title":"","Date":1989,"Publisher":"We Culture Publications","Place":"Barbados","Language":"English","Genre_":"","Link_Attachments":"","Automatic_Tags":"","ObjectId":457},"geometry":{"type":"Point","coordinates":[-59.55642448,13.17222198]}},{"type":"Feature","properties":{"Publication_Year":1999,"Author":"Adisa Andwele; Angelou, Maya; Hewitt, Maggie; Prince, Baden; Pryce, Tony; Vance, Mike; Winch, Emma","Title":"And still I rise': Hackney pupils and poets speak out about enslavement","bookImgId":"","Publication_Title":"","Date":1999,"Publisher":"Learning Trust","Place":"London","Language":"English","Genre_":"","Link_Attachments":"","Automatic_Tags":"","ObjectId":251},"geometry":{"type":"Point","coordinates":[-0.1276986932,51.50740836]}},{"type":"Feature","properties":{"Publication_Year":1996,"Author":"Angelou, Maya; Gerschel, Liz","Title":"Quartet of songs","bookImgId":"","Publication_Title":"","Date":1996,"Publisher":"Longman","Place":"Harlow","Language":"English","Genre_":"","Link_Attachments":"","Automatic_Tags":"","ObjectId":114},"geometry":{"type":"Point","coordinates":[0.09573556009,51.76879833]}},{"type":"Feature","properties":{"Publication_Year":2007,"Author":"Anthony, Michael","Title":"The chieftain's carnival and other stories","bookImgId":"","Publication_Title":"","Date":2007,"Publisher":"Ian Randle Publishers","Place":"Kingston","Language":"English","Genre_":"","Link_Attachments":"","Automatic_Tags":"","ObjectId":18},"geometry":{"type":"Point","coordinates":[-76.78827,17.97092]}},{"type":"Feature","properties":{"Publication_Year":2007,"Author":"Anthony, Michael","Title":"Bright road to El Dorado","bookImgId":"","Publication_Title":"","Date":2007,"Publisher":"Ian Randle Publishers","Place":"Kingston, Jamaica; Miami","Language":"English","Genre_":"","Link_Attachments":"","Automatic_Tags":"","ObjectId":27},"geometry":{"type":"Point","coordinates":[-76.78827,17.97092]}},{"type":"Feature","properties":{"Publication_Year":1996,"Author":"Anthony, Michael","Title":"In the heat of the day","bookImgId":"","Publication_Title":"","Date":1996,"Publisher":"Heinemann Educational Publishers ; Heinemann","Place":"Oxford [England]; Portsmouth, NH","Language":"English","Genre_":"","Link_Attachments":"","Automatic_Tags":"","ObjectId":112},"geometry":{"type":"Point","coordinates":[-1.091156463,50.79683911]}},{"type":"Feature","properties":{"Publication_Year":2001,"Author":"Anthony, Michael","Title":"High tide of intrigue","bookImgId":"","Publication_Title":"","Date":2001,"Publisher":"Heinemann","Place":"Oxford","Language":"English","Genre_":"","Link_Attachments":"","Automatic_Tags":"","ObjectId":148},"geometry":{"type":"Point","coordinates":[-1.257628623,51.75198266]}},{"type":"Feature","properties":{"Publication_Year":1968,"Author":"Antoine, Max A","Title":"Louis Etienne Lysius F??licit?? Salomon Jeune","bookImgId":"","Publication_Title":"","Date":1968,"Publisher":"H. Deschamps","Place":"Port-au- Prince","Language":"French","Genre_":"","Link_Attachments":"","Automatic_Tags":"","ObjectId":794},"geometry":{"type":"Point","coordinates":[-72.335,18.53917]}},{"type":"Feature","properties":{"Publication_Year":1992,"Author":"Antoni, Robert","Title":"Divina Trace","bookImgId":"","Publication_Title":"","Date":"1/1/92","Publisher":"The Overlook Press","Place":"Woodstock, N.Y","Language":"English","Genre_":"","Link_Attachments":"https://www.amazon.com/Divina-Trace-Robert-Antoni/dp/0879514450/ref=tmm_hrd_swatch_0?_encoding=UTF8&qid=&sr=","Automatic_Tags":"","ObjectId":2380},"geometry":{"type":"Point","coordinates":[-74.1183,42.04258]}},{"type":"Feature","properties":{"Publication_Year":2002,"Author":"Antoni, Robert","Title":"Los cuentos eróticos de mi abuela","bookImgId":"","Publication_Title":"","Date":"12/1/02","Publisher":"Editorial Anagrama S.A.","Place":"Barcelona","Language":"Spanish","Genre_":"","Link_Attachments":"https://www.amazon.com/gp/product/843396979X/ref=dbs_a_def_rwt_hsch_vapi_taft_p1_i4","Automatic_Tags":"","ObjectId":2383},"geometry":{"type":"Point","coordinates":[2.17001,41.38804]}},{"type":"Feature","properties":{"Publication_Year":1996,"Author":"antonio-benitez-rojo","Title":"the-repeating-island","bookImgId":"","Publication_Title":"","Date":1996,"Publisher":"","Place":"Durham, N.C","Language":"","Genre_":"","Link_Attachments":"https://www.amazon.com/repeating-island-antonio-benitez-rojo/dp/B00A2POZJ0/ref=sr_1_16?qid=1641329976&refinements=p_27%3AAntonio+Benitez-Rojo&s=books&sr=1-16&text=Antonio+Benitez-Rojo","Automatic_Tags":"","ObjectId":2474},"geometry":{"type":"Point","coordinates":[-78.89644,35.99542]}},{"type":"Feature","properties":{"Publication_Year":2001,"Author":"Applin, Barbara","Title":"The island-hopping game","bookImgId":"","Publication_Title":"","Date":2001,"Publisher":"Macmillan Education","Place":"London","Language":"English","Genre_":"","Link_Attachments":"","Automatic_Tags":"","ObjectId":93},"geometry":{"type":"Point","coordinates":[-0.1276986932,51.50740836]}},{"type":"Feature","properties":{"Publication_Year":1982,"Author":"Arenas, Reinaldo","Title":"Homenaje a Lydia Cabrera.","bookImgId":"","Publication_Title":"","Date":1982,"Publisher":"Frank Garcia","Place":"New York","Language":"Spanish","Genre_":"","Link_Attachments":"","Automatic_Tags":"","ObjectId":931},"geometry":{"type":"Point","coordinates":[-74.00714,40.71455]}},{"type":"Feature","properties":{"Publication_Year":1990,"Author":"Arenas, Reinaldo","Title":"Leprosorio: (triología poética)","bookImgId":"","Publication_Title":"","Date":1990,"Publisher":"Editorial Betania","Place":"Madrid, Espa??a","Language":"Spanish","Genre_":"","Link_Attachments":"","Automatic_Tags":"","ObjectId":933},"geometry":{"type":"Point","coordinates":[-3.69196,40.41955]}},{"type":"Feature","properties":{"Publication_Year":1982,"Author":"Arenas, Reinaldo","Title":"Wahnwitzige Welt (El mundo alucinante, dt.). Ein Abenteuerroman","bookImgId":"","Publication_Title":"","Date":1982,"Publisher":"Suhrkamp","Place":"Frankfurt M.","Language":"German","Genre_":"","Link_Attachments":"","Automatic_Tags":"","ObjectId":935},"geometry":{"type":"Point","coordinates":[8.68341,50.11208]}},{"type":"Feature","properties":{"Publication_Year":1983,"Author":"Arenas, Reinaldo","Title":"El Palacio de las blanquísimas mofetas","bookImgId":"","Publication_Title":"","Date":1983,"Publisher":"Argos Vergara","Place":"Barcelona","Language":"Spanish","Genre_":"","Link_Attachments":"","Automatic_Tags":"","ObjectId":937},"geometry":{"type":"Point","coordinates":[2.17001,41.38804]}},{"type":"Feature","properties":{"Publication_Year":1989,"Author":"Arenas, Reinaldo","Title":"Le monde hallucinant","bookImgId":"","Publication_Title":"","Date":1989,"Publisher":"Editions du Seuil","Place":"Paris","Language":"French","Genre_":"","Link_Attachments":"","Automatic_Tags":"","ObjectId":939},"geometry":{"type":"Point","coordinates":[2.3414,48.85717]}},{"type":"Feature","properties":{"Publication_Year":1985,"Author":"Arenas, Reinaldo","Title":"Persecución","bookImgId":"","Publication_Title":"","Date":1985,"Publisher":"publisher not identified","Place":"New York, N.Y.","Language":"Spanish","Genre_":"","Link_Attachments":"","Automatic_Tags":"","ObjectId":941},"geometry":{"type":"Point","coordinates":[-74.00714,40.71455]}},{"type":"Feature","properties":{"Publication_Year":1986,"Author":"Arenas, Reinaldo","Title":"Persecución: (cinco piezas de teatro experimental)","bookImgId":"","Publication_Title":"","Date":1986,"Publisher":"Ed. Universal","Place":"Miami","Language":"Spanish","Genre_":"","Link_Attachments":"","Automatic_Tags":"","ObjectId":942},"geometry":{"type":"Point","coordinates":[-80.19773,25.77481]}},{"type":"Feature","properties":{"Publication_Year":1986,"Author":"Arenas, Reinaldo","Title":"Necesidad de libertad","bookImgId":"","Publication_Title":"","Date":1986,"Publisher":"Kosmos","Place":"M??xico","Language":"Spanish","Genre_":"","Link_Attachments":"","Automatic_Tags":"","ObjectId":1318},"geometry":{"type":"Point","coordinates":[-99.13315,19.43194]}},{"type":"Feature","properties":{"Publication_Year":1983,"Author":"Arenas, Reinaldo","Title":"Necesidad de libertad","bookImgId":"","Publication_Title":"","Date":1983,"Publisher":"Kosmos-Ed.","Place":"M??xico [u.a.","Language":"Undetermined","Genre_":"","Link_Attachments":"","Automatic_Tags":"","ObjectId":1319},"geometry":{"type":"Point","coordinates":[-99.23490997,19.35618999]}},{"type":"Feature","properties":{"Publication_Year":1980,"Author":"Arenas, Reinaldo","Title":"Celestino antes del alba","bookImgId":"","Publication_Title":"","Date":1980,"Publisher":"Monte Avila Editores","Place":"Caracas","Language":"Spanish","Genre_":"","Link_Attachments":"","Automatic_Tags":"","ObjectId":1328},"geometry":{"type":"Point","coordinates":[-66.87919,10.48801]}},{"type":"Feature","properties":{"Publication_Year":1982,"Author":"Arenas, Reinaldo","Title":"Cantando en el pozo","bookImgId":"","Publication_Title":"","Date":1982,"Publisher":"Argos Vergara","Place":"Barcelona","Language":"Espa??ol","Genre_":"","Link_Attachments":"","Automatic_Tags":"","ObjectId":1329},"geometry":{"type":"Point","coordinates":[2.17001,41.38804]}},{"type":"Feature","properties":{"Publication_Year":1986,"Author":"Arenas, Reinaldo","Title":"Farewell to the sea: a novel of Cuba","bookImgId":"","Publication_Title":"","Date":1986,"Publisher":"Viking","Place":"New York","Language":"English","Genre_":"","Link_Attachments":"","Automatic_Tags":"","ObjectId":1331},"geometry":{"type":"Point","coordinates":[-74.00714,40.71455]}},{"type":"Feature","properties":{"Publication_Year":1985,"Author":"Arenas, Reinaldo","Title":"Farewell to the sea","bookImgId":"","Publication_Title":"","Date":1985,"Publisher":"Viking","Place":"New York","Language":"English","Genre_":"","Link_Attachments":"","Automatic_Tags":"","ObjectId":1332},"geometry":{"type":"Point","coordinates":[-74.00714,40.71455]}},{"type":"Feature","properties":{"Publication_Year":1982,"Author":"Arenas, Reinaldo","Title":"Otra vez el mar","bookImgId":"","Publication_Title":"","Date":1982,"Publisher":"Argos Vergara","Place":"Barcelona","Language":"Spanish","Genre_":"","Link_Attachments":"","Automatic_Tags":"","ObjectId":1333},"geometry":{"type":"Point","coordinates":[2.17001,41.38804]}},{"type":"Feature","properties":{"Publication_Year":1990,"Author":"Arenas, Reinaldo","Title":"El asalto","bookImgId":"","Publication_Title":"","Date":1990,"Publisher":"Universal","Place":"Miami, Fla.","Language":"Spanish","Genre_":"","Link_Attachments":"","Automatic_Tags":"","ObjectId":1337},"geometry":{"type":"Point","coordinates":[-80.19773,25.77481]}},{"type":"Feature","properties":{"Publication_Year":1981,"Author":"Arenas, Reinaldo","Title":"El central","bookImgId":"","Publication_Title":"","Date":1981,"Publisher":"Seix Barral","Place":"Barcelona","Language":"Spanish","Genre_":"","Link_Attachments":"","Automatic_Tags":"","ObjectId":1338},"geometry":{"type":"Point","coordinates":[2.17001,41.38804]}},{"type":"Feature","properties":{"Publication_Year":1990,"Author":"Arenas, Reinaldo","Title":"El portero: [novela","bookImgId":"","Publication_Title":"","Date":1990,"Publisher":"Dador","Place":"Malaga","Language":"Spanish","Genre_":"","Link_Attachments":"","Automatic_Tags":"","ObjectId":1339},"geometry":{"type":"Point","coordinates":[-4.41965,36.71847]}},{"type":"Feature","properties":{"Publication_Year":1989,"Author":"Arenas, Reinaldo","Title":"El portero","bookImgId":"","Publication_Title":"","Date":1989,"Publisher":"Dador/ediciones","Place":"Malaga","Language":"Spanish","Genre_":"","Link_Attachments":"","Automatic_Tags":"","ObjectId":1340},"geometry":{"type":"Point","coordinates":[-4.41965,36.71847]}},{"type":"Feature","properties":{"Publication_Year":1988,"Author":"Arenas, Reinaldo","Title":"Le portier: roman","bookImgId":"","Publication_Title":"","Date":1988,"Publisher":"Presses de la Renaissance","Place":"Paris","Language":"French","Genre_":"","Link_Attachments":"","Automatic_Tags":"","ObjectId":1341},"geometry":{"type":"Point","coordinates":[2.3414,48.85717]}},{"type":"Feature","properties":{"Publication_Year":1987,"Author":"Arenas, Reinaldo","Title":"The doorman","bookImgId":"","Publication_Title":"","Date":1987,"Publisher":"Grove Weidenfeld","Place":"New York","Language":"English","Genre_":"","Link_Attachments":"","Automatic_Tags":"","ObjectId":1342},"geometry":{"type":"Point","coordinates":[-74.00714,40.71455]}},{"type":"Feature","properties":{"Publication_Year":1985,"Author":"Arenas, Reinaldo","Title":"Arturo, l'etoile la plus brillante","bookImgId":"","Publication_Title":"","Date":1985,"Publisher":"Éditions du Seuil","Place":"Paris","Language":"French","Genre_":"","Link_Attachments":"","Automatic_Tags":"","ObjectId":1344},"geometry":{"type":"Point","coordinates":[2.3414,48.85717]}},{"type":"Feature","properties":{"Publication_Year":1988,"Author":"Arenas, Reinaldo","Title":"Arturo, La estrella m??s brillante","bookImgId":"","Publication_Title":"","Date":1988,"Publisher":"Montesinos","Place":"Barcelona","Language":"Spanish","Genre_":"","Link_Attachments":"","Automatic_Tags":"","ObjectId":1345},"geometry":{"type":"Point","coordinates":[2.17001,41.38804]}},{"type":"Feature","properties":{"Publication_Year":1985,"Author":"Arenas, Reinaldo","Title":"Arturo, l'etoile la plus brillante","bookImgId":"","Publication_Title":"","Date":1985,"Publisher":"Editions du Seuil","Place":"Paris","Language":"French","Genre_":"","Link_Attachments":"","Automatic_Tags":"","ObjectId":1346},"geometry":{"type":"Point","coordinates":[2.3414,48.85717]}},{"type":"Feature","properties":{"Publication_Year":1984,"Author":"Arenas, Reinaldo","Title":"Arturo, la estrella m??s brillante","bookImgId":"","Publication_Title":"","Date":1984,"Publisher":"Montesinos","Place":"Barcelona","Language":"Spanish","Genre_":"","Link_Attachments":"","Automatic_Tags":"","ObjectId":1347},"geometry":{"type":"Point","coordinates":[2.17001,41.38804]}},{"type":"Feature","properties":{"Publication_Year":1987,"Author":"Arenas, Reinaldo","Title":"Encore une fois la mer","bookImgId":"","Publication_Title":"","Date":1987,"Publisher":"??ditions du Seuil","Place":"Paris","Language":"French","Genre_":"","Link_Attachments":"","Automatic_Tags":"","ObjectId":1349},"geometry":{"type":"Point","coordinates":[2.3414,48.85717]}},{"type":"Feature","properties":{"Publication_Year":1989,"Author":"Arenas, Reinaldo","Title":"La colline de l'ange: roman","bookImgId":"","Publication_Title":"","Date":1989,"Publisher":"Presses de la Renaissance","Place":"Paris","Language":"French","Genre_":"","Link_Attachments":"","Automatic_Tags":"","ObjectId":1350},"geometry":{"type":"Point","coordinates":[2.3414,48.85717]}},{"type":"Feature","properties":{"Publication_Year":1987,"Author":"Arenas, Reinaldo","Title":"The ill-fated peregrinations of Fray Servando","bookImgId":"","Publication_Title":"","Date":1987,"Publisher":"Avon Books","Place":"New York, N.Y.","Language":"English","Genre_":"","Link_Attachments":"","Automatic_Tags":"","ObjectId":1355},"geometry":{"type":"Point","coordinates":[-74.00714,40.71455]}},{"type":"Feature","properties":{"Publication_Year":1982,"Author":"Arenas, Reinaldo","Title":"Wahnwitzige Welt: ein Abenteuerroman","bookImgId":"","Publication_Title":"","Date":1982,"Publisher":"Suhrkamp","Place":"Frankfurt am Main","Language":"German","Genre_":"","Link_Attachments":"","Automatic_Tags":"","ObjectId":1356},"geometry":{"type":"Point","coordinates":[8.68341,50.11208]}},{"type":"Feature","properties":{"Publication_Year":1982,"Author":"Arenas, Reinaldo","Title":"El mundo alucinante: (una novela de aventuras)","bookImgId":"","Publication_Title":"","Date":1982,"Publisher":"Monte Avila","Place":"Caracas","Language":"Spanish","Genre_":"","Link_Attachments":"","Automatic_Tags":"","ObjectId":1357},"geometry":{"type":"Point","coordinates":[-66.87919,10.48801]}},{"type":"Feature","properties":{"Publication_Year":1981,"Author":"Arenas, Reinaldo","Title":"El mundo alucinante","bookImgId":"","Publication_Title":"","Date":1981,"Publisher":"Montesinos","Place":"Barcelona","Language":"Spanish","Genre_":"","Link_Attachments":"","Automatic_Tags":"","ObjectId":1359},"geometry":{"type":"Point","coordinates":[2.17001,41.38804]}},{"type":"Feature","properties":{"Publication_Year":1987,"Author":"Arenas, Reinaldo","Title":"Graveyard of the angels","bookImgId":"","Publication_Title":"","Date":1987,"Publisher":"Avon Books","Place":"New York","Language":"English","Genre_":"","Link_Attachments":"","Automatic_Tags":"","ObjectId":1362},"geometry":{"type":"Point","coordinates":[-74.00714,40.71455]}},{"type":"Feature","properties":{"Publication_Year":1986,"Author":"Arenas, Reinaldo","Title":"Termina el desfile","bookImgId":"","Publication_Title":"","Date":1986,"Publisher":"Plaza y Jan??s","Place":"Barcelona","Language":"Spanish","Genre_":"","Link_Attachments":"","Automatic_Tags":"","ObjectId":1364},"geometry":{"type":"Point","coordinates":[2.17001,41.38804]}},{"type":"Feature","properties":{"Publication_Year":1984,"Author":"Arenas, Reinaldo","Title":"Termina el desfile","bookImgId":"","Publication_Title":"","Date":1984,"Publisher":"Plaza & Jan??s","Place":"Barcelona","Language":"Spanish","Genre_":"","Link_Attachments":"","Automatic_Tags":"","ObjectId":1365},"geometry":{"type":"Point","coordinates":[2.17001,41.38804]}},{"type":"Feature","properties":{"Publication_Year":1981,"Author":"Arenas, Reinaldo","Title":"Termina el desfile","bookImgId":"","Publication_Title":"","Date":1981,"Publisher":"Seix Barral","Place":"Barcelona","Language":"Spanish","Genre_":"","Link_Attachments":"","Automatic_Tags":"","ObjectId":1366},"geometry":{"type":"Point","coordinates":[2.17001,41.38804]}},{"type":"Feature","properties":{"Publication_Year":1990,"Author":"Arenas, Reinaldo","Title":"Viaje a La Habana: novela en tres viajes","bookImgId":"","Publication_Title":"","Date":1990,"Publisher":"Narrativa Mondadori","Place":"Madrid","Language":"Spanish","Genre_":"","Link_Attachments":"","Automatic_Tags":"","ObjectId":1370},"geometry":{"type":"Point","coordinates":[-3.69196,40.41955]}},{"type":"Feature","properties":{"Publication_Year":1990,"Author":"Arenas, Reinaldo","Title":"Viaje a la Habana: (novela en tres viajes)","bookImgId":"","Publication_Title":"","Date":1990,"Publisher":"Ediciones Universal","Place":"Miami, Fla.","Language":"Spanish","Genre_":"","Link_Attachments":"","Automatic_Tags":"","ObjectId":1371},"geometry":{"type":"Point","coordinates":[-80.19773,25.77481]}},{"type":"Feature","properties":{"Publication_Year":2008,"Author":"Arenas, Reinaldo","Title":"El mundo alucinante:","bookImgId":"","Publication_Title":"","Date":"3/17/08","Publisher":"Ediciones Cátedra","Place":"Madrid","Language":"Spanish","Genre_":"","Link_Attachments":"https://www.amazon.com/gp/product/8437624436/ref=dbs_a_def_rwt_hsch_vapi_taft_p1_i11","Automatic_Tags":"","ObjectId":2011},"geometry":{"type":"Point","coordinates":[-3.69196,40.41955]}},{"type":"Feature","properties":{"Publication_Year":1990,"Author":"Arenas, Reinaldo","Title":"El portero","bookImgId":"","Publication_Title":"","Date":"1/1/90","Publisher":"Ediciones Universal","Place":"Miami, Fla","Language":"English","Genre_":"","Link_Attachments":"https://www.amazon.com/gp/product/0897295609/ref=dbs_a_def_rwt_hsch_vapi_taft_p1_i10","Automatic_Tags":"","ObjectId":2012},"geometry":{"type":"Point","coordinates":[-80.19773,25.77481]}},{"type":"Feature","properties":{"Publication_Year":1991,"Author":"Arenas, Reinaldo","Title":"El color del verano","bookImgId":"","Publication_Title":"","Date":"1/1/91","Publisher":"Ediciones Universal","Place":"Miami, Fla. USA","Language":"Spanish","Genre_":"","Link_Attachments":"https://www.amazon.com/gp/product/0897295951/ref=dbs_a_def_rwt_hsch_vapi_taft_p1_i9","Automatic_Tags":"","ObjectId":2013},"geometry":{"type":"Point","coordinates":[-80.19773,25.77481]}},{"type":"Feature","properties":{"Publication_Year":2001,"Author":"Arenas, Reinaldo","Title":"El palacio de las blanquísimas mofetas","bookImgId":"","Publication_Title":"","Date":"1/1/01","Publisher":"Tusquets Editores S.A.","Place":"Barcelona","Language":"Spanish","Genre_":"","Link_Attachments":"https://www.amazon.com/gp/product/8483101564/ref=dbs_a_def_rwt_hsch_vapi_taft_p1_i7","Automatic_Tags":"","ObjectId":2014},"geometry":{"type":"Point","coordinates":[2.17001,41.38804]}},{"type":"Feature","properties":{"Publication_Year":1996,"Author":"Arenas, Reinaldo","Title":"Celestino Antes Del Alba","bookImgId":"","Publication_Title":"","Date":"1/10/96","Publisher":"Ediciones Universal","Place":"Miami, Fla","Language":"Spanish","Genre_":"","Link_Attachments":"https://www.amazon.com/gp/product/0897297725/ref=dbs_a_def_rwt_hsch_vapi_taft_p1_i6","Automatic_Tags":"","ObjectId":2015},"geometry":{"type":"Point","coordinates":[-80.19773,25.77481]}},{"type":"Feature","properties":{"Publication_Year":2001,"Author":"Arenas, Reinaldo","Title":"Arturo, La Estrella Mas Brillante","bookImgId":"","Publication_Title":"","Date":"10/10/01","Publisher":"Ediciones Universal","Place":"Miami, Fla","Language":"Spanish","Genre_":"","Link_Attachments":"https://www.amazon.com/gp/product/0897297768/ref=dbs_a_def_rwt_hsch_vapi_taft_p1_i4","Automatic_Tags":"","ObjectId":2016},"geometry":{"type":"Point","coordinates":[-80.19773,25.77481]}},{"type":"Feature","properties":{"Publication_Year":2020,"Author":"Arenas, Reinaldo","Title":"Necesidad de Libertad","bookImgId":"","Publication_Title":"","Date":"12/3/20","Publisher":"Ediciones Universal","Place":"Miami, Fla","Language":"Spanish","Genre_":"","Link_Attachments":"https://www.amazon.com/gp/product/0897299558/ref=dbs_a_def_rwt_hsch_vapi_taft_p1_i0","Automatic_Tags":"","ObjectId":2019},"geometry":{"type":"Point","coordinates":[-80.19773,25.77481]}},{"type":"Feature","properties":{"Publication_Year":1994,"Author":"Arenas, Reinaldo","Title":"The Doorman","bookImgId":"","Publication_Title":"","Date":"9/6/94","Publisher":"Grove Press","Place":"New York","Language":"English","Genre_":"","Link_Attachments":"https://www.amazon.com/gp/product/080213405X/ref=dbs_a_def_rwt_hsch_vamf_taft_p2_i11","Automatic_Tags":"","ObjectId":2020},"geometry":{"type":"Point","coordinates":[-74.00714,40.71455]}},{"type":"Feature","properties":{"Publication_Year":1991,"Author":"Arenas, Reinaldo","Title":"The Doorman","bookImgId":"","Publication_Title":"","Date":"6/1/91","Publisher":"Grove Pr","Place":"New York","Language":"English","Genre_":"","Link_Attachments":"https://www.amazon.com/gp/product/0802111092/ref=dbs_a_def_rwt_hsch_vapi_taft_p2_i11","Automatic_Tags":"","ObjectId":2021},"geometry":{"type":"Point","coordinates":[-74.00714,40.71455]}},{"type":"Feature","properties":{"Publication_Year":1994,"Author":"Arenas, Reinaldo","Title":"Old Rosa","bookImgId":"","Publication_Title":"","Date":"9/15/94","Publisher":"Grove Press","Place":"New York","Language":"English","Genre_":"","Link_Attachments":"https://www.amazon.com/gp/product/0802134068/ref=dbs_a_def_rwt_hsch_vamf_taft_p2_i10","Automatic_Tags":"","ObjectId":2022},"geometry":{"type":"Point","coordinates":[-74.00714,40.71455]}},{"type":"Feature","properties":{"Publication_Year":1995,"Author":"Arenas, Reinaldo","Title":"La loma del angel","bookImgId":"","Publication_Title":"","Date":"1/1/95","Publisher":"Cdiciones Universal","Place":"Miami","Language":"Spanish","Genre_":"","Link_Attachments":"https://www.amazon.com/gp/product/0897295196/ref=dbs_a_def_rwt_hsch_vapi_taft_p2_i9","Automatic_Tags":"","ObjectId":2023},"geometry":{"type":"Point","coordinates":[-80.19773,25.77481]}},{"type":"Feature","properties":{"Publication_Year":2000,"Author":"Arenas, Reinaldo","Title":"Color of Summer, or the New Garden of Earthly Delights","bookImgId":"","Publication_Title":"","Date":"7/10/00","Publisher":"Viking Adult","Place":"New York","Language":"English","Genre_":"","Link_Attachments":"https://www.amazon.com/gp/product/0670840653/ref=dbs_a_def_rwt_hsch_vamf_taft_p2_i5","Automatic_Tags":"","ObjectId":2026},"geometry":{"type":"Point","coordinates":[-74.00714,40.71455]}},{"type":"Feature","properties":{"Publication_Year":1990,"Author":"ARENAS, REINALDO","Title":"El asalto","bookImgId":"","Publication_Title":"","Date":"1/1/90","Publisher":"EDICIONES UNIVERSAL","Place":"Miami, Fla","Language":"English","Genre_":"","Link_Attachments":"https://www.amazon.com/gp/product/089729596X/ref=dbs_a_def_rwt_hsch_vapi_taft_p2_i1","Automatic_Tags":"","ObjectId":2028},"geometry":{"type":"Point","coordinates":[-80.19773,25.77481]}},{"type":"Feature","properties":{"Publication_Year":2001,"Author":"Arenas, Reinaldo","Title":"Mona and Other Tales","bookImgId":"","Publication_Title":"","Date":"9/11/01","Publisher":"Vintage","Place":"New York","Language":"English","Genre_":"","Link_Attachments":"https://www.amazon.com/gp/product/0375727302/ref=dbs_a_def_rwt_hsch_vamf_taft_p2_i0","Automatic_Tags":"","ObjectId":2030},"geometry":{"type":"Point","coordinates":[-74.00714,40.71455]}},{"type":"Feature","properties":{"Publication_Year":1981,"Author":"Arenas, Reinaldo","Title":"Termina el desfile","bookImgId":"","Publication_Title":"","Date":"1/1/81","Publisher":"Seix Barral","Place":"Barcelona","Language":"Spanish","Genre_":"","Link_Attachments":"https://www.amazon.com/gp/product/8432213950/ref=dbs_a_def_rwt_hsch_vapi_taft_p3_i10","Automatic_Tags":"","ObjectId":2032},"geometry":{"type":"Point","coordinates":[2.17001,41.38804]}},{"type":"Feature","properties":{"Publication_Year":1981,"Author":"Arenas, Reinaldo","Title":"Central, El","bookImgId":"","Publication_Title":"","Date":"12/1/81","Publisher":"Ediciones Universal","Place":"Barcelona","Language":"Spanish","Genre_":"","Link_Attachments":"https://www.amazon.com/gp/product/8432203939/ref=dbs_a_def_rwt_hsch_vapi_taft_p3_i9","Automatic_Tags":"","ObjectId":2034},"geometry":{"type":"Point","coordinates":[2.17001,41.38804]}},{"type":"Feature","properties":{"Publication_Year":1986,"Author":"Arenas, Reinaldo","Title":"Persecución","bookImgId":"","Publication_Title":"","Date":"1/1/86","Publisher":"Ediciones Universal","Place":"Miami, Fla., U.S.A","Language":"Spanish","Genre_":"","Link_Attachments":"https://www.amazon.com/gp/product/0897293916/ref=dbs_a_def_rwt_hsch_vapi_taft_p3_i8","Automatic_Tags":"","ObjectId":2036},"geometry":{"type":"Point","coordinates":[-80.19773,25.77481]}},{"type":"Feature","properties":{"Publication_Year":1987,"Author":"Arenas, Reinaldo","Title":"Graveyard of the Angels","bookImgId":"","Publication_Title":"","Date":"5/1/87","Publisher":"Avon Books","Place":"New York","Language":"English","Genre_":"","Link_Attachments":"https://www.amazon.com/gp/product/0380750759/ref=dbs_a_def_rwt_hsch_vapi_taft_p3_i7","Automatic_Tags":"","ObjectId":2038},"geometry":{"type":"Point","coordinates":[-74.00714,40.71455]}},{"type":"Feature","properties":{"Publication_Year":1987,"Author":"Arenas, Reinaldo","Title":"Singing from the Well","bookImgId":"","Publication_Title":"","Date":"7/22/87","Publisher":"Viking Adult","Place":"New York, N.Y., U.S.A","Language":"English","Genre_":"","Link_Attachments":"https://www.amazon.com/gp/product/0670808059/ref=dbs_a_def_rwt_hsch_vapi_taft_p3_i5","Automatic_Tags":"","ObjectId":2047},"geometry":{"type":"Point","coordinates":[-74.00714,40.71455]}},{"type":"Feature","properties":{"Publication_Year":1990,"Author":"Arenas, Reinaldo","Title":"Conversación con Reinaldo Arenas","bookImgId":"","Publication_Title":"","Date":"1/1/90","Publisher":"Betania","Place":"Madrid","Language":"Spanish","Genre_":"","Link_Attachments":"https://www.amazon.com/gp/product/8486662575/ref=dbs_a_def_rwt_hsch_vapi_taft_p3_i4","Automatic_Tags":"","ObjectId":2049},"geometry":{"type":"Point","coordinates":[-3.69196,40.41955]}},{"type":"Feature","properties":{"Publication_Year":1990,"Author":"Arenas, Reinaldo","Title":"Leprosorio: Trilogía poética","bookImgId":"","Publication_Title":"","Date":"1/1/90","Publisher":"Betania","Place":"Madrid, España","Language":"Spanish","Genre_":"","Link_Attachments":"https://www.amazon.com/gp/product/8486662672/ref=dbs_a_def_rwt_hsch_vapi_taft_p3_i3","Automatic_Tags":"","ObjectId":2051},"geometry":{"type":"Point","coordinates":[-3.69196,40.41955]}},{"type":"Feature","properties":{"Publication_Year":1990,"Author":"Arenas, Reinaldo","Title":"Viaje a la Habana","bookImgId":"","Publication_Title":"","Date":"1/1/90","Publisher":"Ediciones Universal","Place":"Miami, Fla., U.S.A","Language":"Spanish","Genre_":"","Link_Attachments":"https://www.amazon.com/gp/product/0897295447/ref=dbs_a_def_rwt_hsch_vamf_taft_p3_i2","Automatic_Tags":"","ObjectId":2053},"geometry":{"type":"Point","coordinates":[-80.19773,25.77481]}},{"type":"Feature","properties":{"Publication_Year":1991,"Author":"Arenas, Reinaldo","Title":"The Palace of the White Skunks","bookImgId":"","Publication_Title":"","Date":"1/1/91","Publisher":"Viking Adult","Place":"New York, N.Y., U.S.A","Language":"English","Genre_":"","Link_Attachments":"https://www.amazon.com/gp/product/0670815101/ref=dbs_a_def_rwt_hsch_vapi_taft_p3_i1","Automatic_Tags":"","ObjectId":2055},"geometry":{"type":"Point","coordinates":[-74.00714,40.71455]}},{"type":"Feature","properties":{"Publication_Year":1985,"Author":"Arenas, Reinaldo","Title":"Farewell to the Sea: A Novel of Cuba","bookImgId":"","Publication_Title":"","Date":"11/29/85","Publisher":"Viking Adult","Place":"New York","Language":"English","Genre_":"","Link_Attachments":"https://www.amazon.com/gp/product/0670529605/ref=dbs_a_def_rwt_hsch_vapi_taft_p3_i0","Automatic_Tags":"","ObjectId":2059},"geometry":{"type":"Point","coordinates":[-74.00714,40.71455]}},{"type":"Feature","properties":{"Publication_Year":1994,"Author":"Arenas, Reinaldo","Title":"The Assault","bookImgId":"","Publication_Title":"","Date":"7/1/94","Publisher":"Viking","Place":"New York","Language":"English","Genre_":"","Link_Attachments":"https://www.amazon.com/gp/product/0670840661/ref=dbs_a_def_rwt_hsch_vapi_taft_p2_i8","Automatic_Tags":"","ObjectId":2104},"geometry":{"type":"Point","coordinates":[-74.00714,40.71455]}},{"type":"Feature","properties":{"Publication_Year":1976,"Author":"Arenas, Reinaldo","Title":"Hallucinations: Being an Account of the Life and Adventures of Friar Servando Teresa de Mier","bookImgId":"","Publication_Title":"","Date":"5/30/76","Publisher":"Penguin Books","Place":"Harmondsworth, Eng. ; Baltimore","Language":"English","Genre_":"Genre: Biographical Fiction","Link_Attachments":"https://www.amazon.com/gp/product/0140038957/ref=dbs_a_def_rwt_hsch_vamf_taft_p3_i11","Automatic_Tags":"","ObjectId":2199},"geometry":{"type":"Point","coordinates":[-0.4789205603,51.48869532]}},{"type":"Feature","properties":{"Publication_Year":1971,"Author":"Arenas, Reinaldo","Title":"Hallucinations, being an account of the life and adventures of Friar Servando Teresa de Mier;","bookImgId":"","Publication_Title":"","Date":"1/1/71","Publisher":"Cape","Place":"London","Language":"English","Genre_":"Genre: Biographical Fiction","Link_Attachments":"https://www.amazon.com/gp/product/0224005081/ref=dbs_a_def_rwt_hsch_vapi_taft_p3_i11","Automatic_Tags":"","ObjectId":2200},"geometry":{"type":"Point","coordinates":[-0.1276986932,51.50740836]}},{"type":"Feature","properties":{"Publication_Year":1990,"Author":"Arenas, Reinaldo, Hasson, Liliane; Camacho, Jorge","Title":"M??ditations de Saint-Nazaire = Meditaciones de Saint-Nazaire","bookImgId":"","Publication_Title":"","Date":1990,"Publisher":"Maison des ??crivains ??trangers et des traducteurs","Place":"Saint-Nazaire","Language":"French","Genre_":"","Link_Attachments":"","Automatic_Tags":"","ObjectId":1360},"geometry":{"type":"Point","coordinates":[-2.21386,47.27435]}},{"type":"Feature","properties":{"Publication_Year":1984,"Author":"Arenas, Reinaldo; Arenas, Reinaldo","Title":"Old Rosa: a novel in two stories","bookImgId":"","Publication_Title":"","Date":1984,"Publisher":"Grove Press","Place":"New York","Language":"English","Genre_":"","Link_Attachments":"","Automatic_Tags":"","ObjectId":1326},"geometry":{"type":"Point","coordinates":[-74.00714,40.71455]}},{"type":"Feature","properties":{"Publication_Year":1990,"Author":"Arenas, Reinaldo; Camacho, Jorge","Title":"Un plebiscito a Fidel Castro","bookImgId":"","Publication_Title":"","Date":1990,"Publisher":"Ed. Betania","Place":"Madrid","Language":"Undetermined","Genre_":"","Link_Attachments":"","Automatic_Tags":"","ObjectId":1336},"geometry":{"type":"Point","coordinates":[-3.69196,40.41955]}},{"type":"Feature","properties":{"Publication_Year":2001,"Author":"Arenas, Reinaldo; Colchie, Thomas","Title":"The Color of Summer: or The New Garden of Earthly Delights","bookImgId":"","Publication_Title":"","Date":"6/1/01","Publisher":"Penguin Books","Place":"New York","Language":"English","Genre_":"","Link_Attachments":"https://www.amazon.com/gp/product/0140157190/ref=dbs_a_def_rwt_hsch_vamf_taft_p2_i5","Automatic_Tags":"","ObjectId":2024},"geometry":{"type":"Point","coordinates":[-74.00714,40.71455]}},{"type":"Feature","properties":{"Publication_Year":1988,"Author":"Arenas, Reinaldo; Colchie, Thomas","Title":"Singing from the Well","bookImgId":"","Publication_Title":"","Date":"6/1/88","Publisher":"Penguin Books","Place":"New York, N.Y., U.S.A","Language":"English","Genre_":"","Link_Attachments":"https://www.amazon.com/gp/product/014009444X/ref=dbs_a_def_rwt_hsch_vamf_taft_p3_i5","Automatic_Tags":"","ObjectId":2043},"geometry":{"type":"Point","coordinates":[-74.00714,40.71455]}},{"type":"Feature","properties":{"Publication_Year":1987,"Author":"Arenas, Reinaldo; Colchie, Thomas","Title":"Farewell to the Sea: A Novel of Cuba","bookImgId":"","Publication_Title":"","Date":"7/7/87","Publisher":"Penguin Books","Place":"New York, N.Y., U.S.A","Language":"English","Genre_":"","Link_Attachments":"https://www.amazon.com/gp/product/0140066365/ref=dbs_a_def_rwt_hsch_vamf_taft_p3_i0","Automatic_Tags":"","ObjectId":2057},"geometry":{"type":"Point","coordinates":[-74.00714,40.71455]}},{"type":"Feature","properties":{"Publication_Year":1984,"Author":"Arenas, Reinaldo; Coste, Didier","Title":"Le monde hallucinant roman","bookImgId":"","Publication_Title":"","Date":1984,"Publisher":"Ed du Seuil","Place":"Paris","Language":"French","Genre_":"","Link_Attachments":"","Automatic_Tags":"","ObjectId":940},"geometry":{"type":"Point","coordinates":[2.3414,48.85717]}},{"type":"Feature","properties":{"Publication_Year":1987,"Author":"Arenas, Reinaldo; Epsilon Gallery (Br??ssel)","Title":"REINALDO ARENAS.","bookImgId":"","Publication_Title":"","Date":1987,"Publisher":"","Place":"BRUXELLES","Language":"Undetermined","Genre_":"","Link_Attachments":"","Automatic_Tags":"","ObjectId":1361},"geometry":{"type":"Point","coordinates":[4.35609,50.84439]}},{"type":"Feature","properties":{"Publication_Year":1990,"Author":"Arenas, Reinaldo; Hasson, Liliane","Title":"Voyage ?? La Havane: roman","bookImgId":"","Publication_Title":"","Date":1990,"Publisher":"Presses de la Renaissance","Place":"Paris","Language":"French","Genre_":"","Link_Attachments":"","Automatic_Tags":"","ObjectId":1351},"geometry":{"type":"Point","coordinates":[2.3414,48.85717]}},{"type":"Feature","properties":{"Publication_Year":1990,"Author":"Arenas, Reinaldo; Hasson, Liliane","Title":"Voyage ?? La Havane","bookImgId":"","Publication_Title":"","Date":1990,"Publisher":"Presses de la Renaissance","Place":"Paris","Language":"French","Genre_":"","Link_Attachments":"","Automatic_Tags":"","ObjectId":1354},"geometry":{"type":"Point","coordinates":[2.3414,48.85717]}},{"type":"Feature","properties":{"Publication_Year":1990,"Author":"Arenas, Reinaldo; Hurley, Andrew","Title":"The color of summer, or, The new garden of earthly delights","bookImgId":"","Publication_Title":"","Date":1990,"Publisher":"Viking Penguin","Place":"New York","Language":"English","Genre_":"","Link_Attachments":"","Automatic_Tags":"","ObjectId":945},"geometry":{"type":"Point","coordinates":[-74.00714,40.71455]}},{"type":"Feature","properties":{"Publication_Year":1990,"Author":"Arenas, Reinaldo; Hurley, Andrew","Title":"The palace of the white skunks","bookImgId":"","Publication_Title":"","Date":1990,"Publisher":"Viking","Place":"New York, N.Y., U.S.A.","Language":"English","Genre_":"","Link_Attachments":"","Automatic_Tags":"","ObjectId":1323},"geometry":{"type":"Point","coordinates":[-74.00714,40.71455]}},{"type":"Feature","properties":{"Publication_Year":1987,"Author":"Arenas, Reinaldo; Hurley, Andrew","Title":"Singing from the well","bookImgId":"","Publication_Title":"","Date":1987,"Publisher":"Viking","Place":"New York, N.Y., U.S.A.","Language":"English","Genre_":"","Link_Attachments":"","Automatic_Tags":"","ObjectId":1327},"geometry":{"type":"Point","coordinates":[-74.00714,40.71455]}},{"type":"Feature","properties":{"Publication_Year":1988,"Author":"Arenas, Reinaldo; Hurley, Andrew","Title":"Singing from the Well","bookImgId":"","Publication_Title":"","Date":1988,"Publisher":"Penguin Books","Place":"Nueva York","Language":"Spanish","Genre_":"","Link_Attachments":"","Automatic_Tags":"","ObjectId":1330},"geometry":{"type":"Point","coordinates":[-74.00714,40.71455]}},{"type":"Feature","properties":{"Publication_Year":1987,"Author":"Arenas, Reinaldo; Hurley, Andrew","Title":"Farewell to the sea: a novel of Cuba","bookImgId":"","Publication_Title":"","Date":1987,"Publisher":"Penguin","Place":"London","Language":"English","Genre_":"","Link_Attachments":"","Automatic_Tags":"","ObjectId":1334},"geometry":{"type":"Point","coordinates":[-0.1276986932,51.50740836]}},{"type":"Feature","properties":{"Publication_Year":1984,"Author":"Arenas, Reinaldo; Jim??nez, Jos?? Olivio; Fort??n, Clara","Title":"Lazarillo de Tormes","bookImgId":"","Publication_Title":"","Date":1984,"Publisher":"Regents","Place":"New York, N.Y.","Language":"Spanish","Genre_":"","Link_Attachments":"","Automatic_Tags":"","ObjectId":1352},"geometry":{"type":"Point","coordinates":[-74.00714,40.71455]}},{"type":"Feature","properties":{"Publication_Year":1987,"Author":"Arenas, Reinaldo; Josimcevic, Marica","Title":"Opsene","bookImgId":"","Publication_Title":"","Date":1987,"Publisher":"Srpska knjizevna zadruga","Place":"Beograd","Language":"In Serbo-Croatian","Genre_":"","Link_Attachments":"","Automatic_Tags":"","ObjectId":944},"geometry":{"type":"Point","coordinates":[20.46329,44.8131]}},{"type":"Feature","properties":{"Publication_Year":1983,"Author":"Arenas, Reinaldo; Kitching-Schulman, Aline","Title":"La Plantation","bookImgId":"","Publication_Title":"","Date":1983,"Publisher":"Editions du Seuil","Place":"Paris","Language":"French","Genre_":"","Link_Attachments":"","Automatic_Tags":"","ObjectId":947},"geometry":{"type":"Point","coordinates":[2.3414,48.85717]}},{"type":"Feature","properties":{"Publication_Year":1988,"Author":"Arenas, Reinaldo; Lincu, Doina","Title":"Castelul: roman","bookImgId":"","Publication_Title":"","Date":1988,"Publisher":"Editura Militara","Place":"Bucuresti","Language":"Romanian","Genre_":"","Link_Attachments":"","Automatic_Tags":"","ObjectId":923},"geometry":{"type":"Point","coordinates":[26.10298,44.43429]}},{"type":"Feature","properties":{"Publication_Year":1982,"Author":"Arenas, Reinaldo; López, Monika","Title":"Der Palast der blütenweissen Stinktiere","bookImgId":"","Publication_Title":"","Date":1982,"Publisher":"Luchterhand","Place":"Darmstadt","Language":"German","Genre_":"","Link_Attachments":"","Automatic_Tags":"","ObjectId":938},"geometry":{"type":"Point","coordinates":[8.65013,49.87264]}},{"type":"Feature","properties":{"Publication_Year":2020,"Author":"Arenas, Reinaldo; Manrique, Jaime","Title":"Before Night Falls: A Memoir","bookImgId":"","Publication_Title":"","Date":"2/25/20","Publisher":"Penguin Classics","Place":"New York","Language":"English","Genre_":"","Link_Attachments":"https://www.amazon.com/gp/product/0143134841/ref=dbs_a_def_rwt_hsch_vamf_taft_p1_i3","Automatic_Tags":"","ObjectId":2017},"geometry":{"type":"Point","coordinates":[-74.00714,40.71455]}},{"type":"Feature","properties":{"Publication_Year":1989,"Author":"Arenas, Reinaldo; Nuuttila, Mirjaliisa","Title":"Harhanäkyjen maailma","bookImgId":"","Publication_Title":"","Date":1989,"Publisher":"Kirjayhtymä","Place":"Hki","Language":"Finnish","Genre_":"","Link_Attachments":"","Automatic_Tags":"","ObjectId":943},"geometry":{"type":"Point","coordinates":[24.93265,60.17116]}},{"type":"Feature","properties":{"Publication_Year":1990,"Author":"Arenas, Reinaldo; Saint-Lu, Jean-Marie","Title":"Le Portier","bookImgId":"","Publication_Title":"","Date":1990,"Publisher":"Ed. Rivages","Place":"Paris","Language":"French","Genre_":"","Link_Attachments":"","Automatic_Tags":"","ObjectId":1353},"geometry":{"type":"Point","coordinates":[2.3414,48.85717]}},{"type":"Feature","properties":{"Publication_Year":1988,"Author":"Arenas, Reinaldo; Schulman, Aline","Title":"Fin de d??fil??: nouvelles","bookImgId":"","Publication_Title":"","Date":1988,"Publisher":"Presses de la Renaissance","Place":"Paris","Language":"French","Genre_":"","Link_Attachments":"","Automatic_Tags":"","ObjectId":1363},"geometry":{"type":"Point","coordinates":[2.3414,48.85717]}},{"type":"Feature","properties":{"Publication_Year":1990,"Author":"Arenas, Reinaldo; Soto, Francisco","Title":"Conversaci??n con Reinaldo Arenas","bookImgId":"","Publication_Title":"","Date":1990,"Publisher":"Betania","Place":"Madrid","Language":"Spanish","Genre_":"","Link_Attachments":"","Automatic_Tags":"","ObjectId":1373},"geometry":{"type":"Point","coordinates":[-3.69196,40.41955]}},{"type":"Feature","properties":{"Publication_Year":1984,"Author":"Arenas, Reinaldo; Terra, Paulo Octaviano","Title":"O mundo alucinante","bookImgId":"","Publication_Title":"","Date":1984,"Publisher":"Francisco Alves","Place":"Rio de Janeiro","Language":"Portuguese","Genre_":"","Link_Attachments":"","Automatic_Tags":"","ObjectId":946},"geometry":{"type":"Point","coordinates":[-43.17501,-22.91216]}},{"type":"Feature","properties":{"Publication_Year":1989,"Author":"Arenas, Reinaldo; Villaverde, Cirilo","Title":"La loma del ??ngel","bookImgId":"","Publication_Title":"","Date":1989,"Publisher":"DADOR","Place":"M??laga","Language":"Spanish","Genre_":"","Link_Attachments":"","Automatic_Tags":"","ObjectId":1367},"geometry":{"type":"Point","coordinates":[-4.41965,36.71847]}},{"type":"Feature","properties":{"Publication_Year":1987,"Author":"Arenas, Reinaldo; Villaverde, Cirilo","Title":"La loma del angel","bookImgId":"","Publication_Title":"","Date":1987,"Publisher":"Mariel Press","Place":"Miami, Florida","Language":"English","Genre_":"","Link_Attachments":"","Automatic_Tags":"","ObjectId":1368},"geometry":{"type":"Point","coordinates":[-80.19773,25.77481]}},{"type":"Feature","properties":{"Publication_Year":1997,"Author":"Arthur, Kevyn Alan","Title":"The view from Belmont","bookImgId":"","Publication_Title":"","Date":1997,"Publisher":"Peepal Tree","Place":"Leeds","Language":"English","Genre_":"","Link_Attachments":"","Automatic_Tags":"","ObjectId":130},"geometry":{"type":"Point","coordinates":[-1.550267941,53.8007186]}},{"type":"Feature","properties":{"Publication_Year":1996,"Author":"Arthur, Kevyn Alan","Title":"The view from Belmont.","bookImgId":"","Publication_Title":"","Date":1996,"Publisher":"Peepal Tree","Place":"London","Language":"English","Genre_":"","Link_Attachments":"","Automatic_Tags":"","ObjectId":254},"geometry":{"type":"Point","coordinates":[-0.1276986932,51.50740836]}},{"type":"Feature","properties":{"Publication_Year":2008,"Author":"Arthur, Kevyn Alan","Title":"Caribbean treasure: a trove of 18th-century Barbadian poetry and prose. Vol. 1 Vol. 1","bookImgId":"","Publication_Title":"","Date":2008,"Publisher":"Peepal Tree","Place":"Leeds, England","Language":"English","Genre_":"","Link_Attachments":"","Automatic_Tags":"","ObjectId":255},"geometry":{"type":"Point","coordinates":[-1.550267941,53.8007186]}},{"type":"Feature","properties":{"Publication_Year":2008,"Author":"Arthur, Kevyn Alan","Title":"The view from Belmont","bookImgId":"","Publication_Title":"","Date":2008,"Publisher":"Peepal Tree Press","Place":"Leeds","Language":"English","Genre_":"","Link_Attachments":"","Automatic_Tags":"","ObjectId":256},"geometry":{"type":"Point","coordinates":[-1.550267941,53.8007186]}},{"type":"Feature","properties":{"Publication_Year":1971,"Author":"Asturias, Miguel Angel; Rabassa, Gregory","Title":"The green pope","bookImgId":"","Publication_Title":"","Date":1971,"Publisher":"Delacorte Press","Place":"New York","Language":"English","Genre_":"","Link_Attachments":"","Automatic_Tags":"","ObjectId":106},"geometry":{"type":"Point","coordinates":[-74.00714,40.71455]}},{"type":"Feature","properties":{"Publication_Year":2000,"Author":"Aubertin, Michael","Title":"Neg Maron: freedom fighter","bookImgId":"","Publication_Title":"","Date":2000,"Publisher":"Caribbean Diaspora Press","Place":"Brooklyn, N.Y.","Language":"English","Genre_":"","Link_Attachments":"","Automatic_Tags":"","ObjectId":137},"geometry":{"type":"Point","coordinates":[-73.99036,40.69245]}},{"type":"Feature","properties":{"Publication_Year":1991,"Author":"Aubertin, Michael","Title":"Programmed","bookImgId":"","Publication_Title":"","Date":1991,"Publisher":"The Author","Place":"Castries, St. Lucia","Language":"English","Genre_":"","Link_Attachments":"","Automatic_Tags":"","ObjectId":257},"geometry":{"type":"Point","coordinates":[-60.98963,14.01177]}},{"type":"Feature","properties":{"Publication_Year":1978,"Author":"Aubertin, Michael","Title":"Mighty laughs","bookImgId":"","Publication_Title":"","Date":1978,"Publisher":"Lithographic Press","Place":"Castries, St. Lucia","Language":"English","Genre_":"","Link_Attachments":"","Automatic_Tags":"","ObjectId":258},"geometry":{"type":"Point","coordinates":[-60.98963,14.01177]}},{"type":"Feature","properties":{"Publication_Year":1983,"Author":"Australian National University; Library; James, Cynthia","Title":"Early Western language imprints in the Australian National University Library: a list of holdings as at 31 December, 1982","bookImgId":"","Publication_Title":"","Date":1983,"Publisher":"publisher not identified","Place":"Canberra","Language":"English","Genre_":"","Link_Attachments":"","Automatic_Tags":"","ObjectId":1528},"geometry":{"type":"Point","coordinates":[149.12655,-35.30654]}},{"type":"Feature","properties":{"Publication_Year":1996,"Author":"Baldeosingh, Kevin","Title":"The autobiography of Paras P.","bookImgId":"","Publication_Title":"","Date":1996,"Publisher":"Heinemann Educational Publishers","Place":"Oxford [England]; Portsmouth, NH","Language":"English","Genre_":"","Link_Attachments":"","Automatic_Tags":"","ObjectId":124},"geometry":{"type":"Point","coordinates":[-1.091156463,50.79683911]}},{"type":"Feature","properties":{"Publication_Year":1997,"Author":"Baldeosingh, Kevin","Title":"Virgin's triangle","bookImgId":"","Publication_Title":"","Date":1997,"Publisher":"Heinemann Educational Pub.","Place":"Oxford; Portsmouth, NH","Language":"English","Genre_":"","Link_Attachments":"","Automatic_Tags":"","ObjectId":128},"geometry":{"type":"Point","coordinates":[-70.79527989,43.05629178]}},{"type":"Feature","properties":{"Publication_Year":1999,"Author":"Baldeosingh, Kevin","Title":"The New voices: a journal for the promotion of creative writing.","bookImgId":"","Publication_Title":"","Date":1999,"Publisher":"Caribbean Media Consultants","Place":"Trinidad, West Indies","Language":"English","Genre_":"","Link_Attachments":"","Automatic_Tags":"","ObjectId":259},"geometry":{"type":"Point","coordinates":[-61.4243397,10.65279805]}},{"type":"Feature","properties":{"Publication_Year":1996,"Author":"Baldeosingh, Kevin","Title":"The autobiography of Paras P.","bookImgId":"","Publication_Title":"","Date":1996,"Publisher":"Heinemann","Place":"Oxford","Language":"English","Genre_":"","Link_Attachments":"","Automatic_Tags":"","ObjectId":260},"geometry":{"type":"Point","coordinates":[-1.257628623,51.75198266]}},{"type":"Feature","properties":{"Publication_Year":2013,"Author":"Baldeosingh, Kevin","Title":"The ten incarnations of Adam Avatar","bookImgId":"","Publication_Title":"","Date":2013,"Publisher":"Peepal Tree","Place":"Leeds","Language":"English","Genre_":"","Link_Attachments":"","Automatic_Tags":"","ObjectId":261},"geometry":{"type":"Point","coordinates":[-1.550267941,53.8007186]}},{"type":"Feature","properties":{"Publication_Year":2004,"Author":"Baldeosingh, Kevin","Title":"The Ten Incarnations of Adam Avatar.","bookImgId":"","Publication_Title":"","Date":2004,"Publisher":"Peepal Tree Press Ltd.","Place":"Chicago","Language":"English","Genre_":"","Link_Attachments":"","Automatic_Tags":"","ObjectId":262},"geometry":{"type":"Point","coordinates":[-87.63245,41.88425]}},{"type":"Feature","properties":{"Publication_Year":2002,"Author":"Bardach, Ann Louise","Title":"Cuba: [short stories","bookImgId":"","Publication_Title":"","Date":2002,"Publisher":"Whereabouts Press : Distributed to the trade by Publisher's Group West.","Place":"Berkeley, Calif.","Language":"English","Genre_":"","Link_Attachments":"","Automatic_Tags":"","ObjectId":710},"geometry":{"type":"Point","coordinates":[-122.27054,37.86988]}},{"type":"Feature","properties":{"Publication_Year":1967,"Author":"Barrett, Lindsay","Title":"Song for Mumu","bookImgId":"","Publication_Title":"","Date":1967,"Publisher":"Longmans","Place":"(London)","Language":"English","Genre_":"","Link_Attachments":"","Automatic_Tags":"","ObjectId":1100},"geometry":{"type":"Point","coordinates":[-0.1276986932,51.50740836]}},{"type":"Feature","properties":{"Publication_Year":1966,"Author":"Barrett, Lindsay; Potter, Larry","Title":"The state of black desire: 3 poems... 3 essays","bookImgId":"","Publication_Title":"","Date":1966,"Publisher":"Lindsay Barrett","Place":"Paris","Language":"English","Genre_":"","Link_Attachments":"","Automatic_Tags":"","ObjectId":1101},"geometry":{"type":"Point","coordinates":[2.3414,48.85717]}},{"type":"Feature","properties":{"Publication_Year":1986,"Author":"Baugh, Edward; Morris, Mervyn","Title":"Caribbean theatre","bookImgId":"","Publication_Title":"","Date":1986,"Publisher":"West Indian Association for Commonwealth Literature and Language Studies","Place":"Kingston, Jamaica","Language":"English","Genre_":"","Link_Attachments":"","Automatic_Tags":"","ObjectId":1482},"geometry":{"type":"Point","coordinates":[-76.78827,17.97092]}},{"type":"Feature","properties":{"Publication_Year":1957,"Author":"Baumann, Hans","Title":"Son of Columbus","bookImgId":"","Publication_Title":"","Date":1957,"Publisher":"Oxford University Press","Place":"London","Language":"English","Genre_":"","Link_Attachments":"","Automatic_Tags":"","ObjectId":97},"geometry":{"type":"Point","coordinates":[-0.1276986932,51.50740836]}},{"type":"Feature","properties":{"Publication_Year":1984,"Author":"Bearden, Romare; Walcott, Derek","Title":"Rituals of the Obeah: watercolors, 14 November-15 December, 1984","bookImgId":"","Publication_Title":"","Date":1984,"Publisher":"Cordier & Ekstrom","Place":"New York","Language":"English","Genre_":"","Link_Attachments":"","Automatic_Tags":"","ObjectId":1809},"geometry":{"type":"Point","coordinates":[-74.00714,40.71455]}},{"type":"Feature","properties":{"Publication_Year":1997,"Author":"Behn, Aphra; Lipking, Joanna","Title":"Oroonoko: an authoritative text, historical backgrounds, criticism","bookImgId":"","Publication_Title":"","Date":1997,"Publisher":"W.W. Norton","Place":"New York","Language":"English","Genre_":"","Link_Attachments":"","Automatic_Tags":"","ObjectId":126},"geometry":{"type":"Point","coordinates":[-74.00714,40.71455]}},{"type":"Feature","properties":{"Publication_Year":1997,"Author":"Behn, Aphra; Metzger, Lore","Title":"Oroonoko or the Royal Slave","bookImgId":"","Publication_Title":"","Date":1997,"Publisher":"W.W. Norton","Place":"New York","Language":"English","Genre_":"","Link_Attachments":"","Automatic_Tags":"","ObjectId":321},"geometry":{"type":"Point","coordinates":[-74.00714,40.71455]}},{"type":"Feature","properties":{"Publication_Year":1994,"Author":"Behn, Aphra; Salzman, Paul","Title":"Oroonoko, and other writings","bookImgId":"","Publication_Title":"","Date":1994,"Publisher":"Oxford University Press","Place":"Oxford; New York","Language":"English","Genre_":"","Link_Attachments":"","Automatic_Tags":"","ObjectId":195},"geometry":{"type":"Point","coordinates":[-75.59757,42.44208]}},{"type":"Feature","properties":{"Publication_Year":1893,"Author":"Bell, Hesketh","Title":"A witch's legacy.","bookImgId":"","Publication_Title":"","Date":1893,"Publisher":"Sampson, Low, Marston","Place":"London","Language":"English","Genre_":"Genre:","Link_Attachments":"https://catalog.hathitrust.org/Record/100859132","Automatic_Tags":"","ObjectId":618},"geometry":{"type":"Point","coordinates":[-0.1276986932,51.50740836]}},{"type":"Feature","properties":{"Publication_Year":1893,"Author":"Bell, Hesketh","Title":"Obeah, witchcraft in the West Indies","bookImgId":"","Publication_Title":"","Date":1893,"Publisher":"S. Low, Marston & company limited","Place":"London","Language":"","Genre_":"Genre:","Link_Attachments":"https://catalog.hathitrust.org/Record/100323197","Automatic_Tags":"Blacks; Description and travel; West Indies; Witchcraft","ObjectId":619},"geometry":{"type":"Point","coordinates":[-0.1276986932,51.50740836]}},{"type":"Feature","properties":{"Publication_Year":1893,"Author":"Bell, Hesketh","Title":"A witch's legacy.","bookImgId":"","Publication_Title":"","Date":1893,"Publisher":"Sampson, Low, Marston","Place":"London","Language":"English","Genre_":"Genre:","Link_Attachments":"https://catalog.hathitrust.org/Record/100859132","Automatic_Tags":"","ObjectId":2492},"geometry":{"type":"Point","coordinates":[-0.1276986932,51.50740836]}},{"type":"Feature","properties":{"Publication_Year":2000,"Author":"Bellalouna, Elizabeth; LaBlanc, Michael L; Milne, Ira Mark","Title":"Literature of developing nations for students: presenting analysis, context, and criticism on literature of developing nations","bookImgId":"","Publication_Title":"","Date":2000,"Publisher":"Gale Group","Place":"Detroit","Language":"English","Genre_":"","Link_Attachments":"","Automatic_Tags":"","ObjectId":836},"geometry":{"type":"Point","coordinates":[-83.048,42.33168]}},{"type":"Feature","properties":{"Publication_Year":1998,"Author":"Benitez-Rojo, Antonio","Title":"A View from the Mangrove","bookImgId":"","Publication_Title":"","Date":"5/15/98","Publisher":"University of Massachusetts Press","Place":"Amherst","Language":"English","Genre_":"","Link_Attachments":"https://www.amazon.com/View-Mangrove-Antonio-Benitez-Rojo/dp/1558491368/ref=tmm_hrd_swatch_0?_encoding=UTF8&qid=1641329976&sr=1-13","Automatic_Tags":"","ObjectId":2476},"geometry":{"type":"Point","coordinates":[97.5675,16.08]}},{"type":"Feature","properties":{"Publication_Year":2006,"Author":"Benitez-Rojo, Antonio","Title":"Femme En Costume de Bataille","bookImgId":"","Publication_Title":"","Date":"11/2/06","Publisher":"Contemporary French Fiction","Place":"Paris","Language":"French","Genre_":"","Link_Attachments":"https://www.amazon.com/Femme-Costume-Bataille-English-French/dp/2757801686/ref=sr_1_8?qid=1641329976&refinements=p_27%3AAntonio+Benitez-Rojo&s=books&sr=1-8&text=Antonio+Benitez-Rojo","Automatic_Tags":"","ObjectId":2480},"geometry":{"type":"Point","coordinates":[2.3414,48.85717]}},{"type":"Feature","properties":{"Publication_Year":1984,"Author":"Benitez-Rojo, Antonio","Title":"Estatuas Sepultadas Y Otros Relatos","bookImgId":"","Publication_Title":"","Date":"7/1/84","Publisher":"Ediciones Del Norte","Place":"Hanover, U.S.A","Language":"Spanish","Genre_":"","Link_Attachments":"https://www.amazon.com/Estatuas-Sepultadas-Relatos-Spanish-English/dp/0910061203/ref=sr_1_17?qid=1641329861&refinements=p_27%3AAntonio+Benitez-Rojo&s=books&sr=1-17&text=Antonio+Benitez-Rojo","Automatic_Tags":"","ObjectId":2484},"geometry":{"type":"Point","coordinates":[-76.72414,39.19289]}},{"type":"Feature","properties":{"Publication_Year":2006,"Author":"Benítez, Proenza Anne Rojo Antonio","Title":"Femme en costume de bataille","bookImgId":"","Publication_Title":"","Date":"1/1/06","Publisher":"Éd. France loisirs","Place":"Paris","Language":"French","Genre_":"","Link_Attachments":"https://www.amazon.com/costume-bataille-Proenza-Antonio-Ben%C3%ADtez/dp/2744191671/ref=tmm_mmp_swatch_0?_encoding=UTF8&qid=1641329976&sr=1-8","Automatic_Tags":"","ObjectId":2479},"geometry":{"type":"Point","coordinates":[2.3414,48.85717]}},{"type":"Feature","properties":{"Publication_Year":1961,"Author":"Bennett, Louise","Title":"Laugh with Louise: a pot-pourri of Jamaican folklore.","bookImgId":"","Publication_Title":"","Date":1961,"Publisher":"City Printery","Place":"Kingston, Jamaica","Language":"English","Genre_":"","Link_Attachments":"","Automatic_Tags":"","ObjectId":1265},"geometry":{"type":"Point","coordinates":[-76.78827,17.97092]}},{"type":"Feature","properties":{"Publication_Year":1982,"Author":"Bennett, Louise","Title":"Selected poems","bookImgId":"","Publication_Title":"","Date":1982,"Publisher":"Sangster's Book Stores","Place":"Kingston, Jamaica","Language":"English","Genre_":"","Link_Attachments":"","Automatic_Tags":"","ObjectId":1491},"geometry":{"type":"Point","coordinates":[-76.78827,17.97092]}},{"type":"Feature","properties":{"Publication_Year":1987,"Author":"Bennett, Louise; Morris, Mervyn","Title":"Selected poems","bookImgId":"","Publication_Title":"","Date":1987,"Publisher":"Sangster's Book Stores","Place":"Kingston, Jamaica","Language":"English","Genre_":"","Link_Attachments":"","Automatic_Tags":"","ObjectId":1485},"geometry":{"type":"Point","coordinates":[-76.78827,17.97092]}},{"type":"Feature","properties":{"Publication_Year":1983,"Author":"Bennett, Louise; Morris, Mervyn","Title":"Selected poems","bookImgId":"","Publication_Title":"","Date":1983,"Publisher":"Sangsters","Place":"Kingston, Jamaica","Language":"English","Genre_":"","Link_Attachments":"","Automatic_Tags":"","ObjectId":1488},"geometry":{"type":"Point","coordinates":[-76.78827,17.97092]}},{"type":"Feature","properties":{"Publication_Year":1966,"Author":"Bennett, Louise; Nettleford, Rex","Title":"Jamaica labrish: Jamaica dialect poems","bookImgId":"","Publication_Title":"","Date":1966,"Publisher":"Sangster","Place":"Kingston], Jam.","Language":"English","Genre_":"","Link_Attachments":"","Automatic_Tags":"","ObjectId":1264},"geometry":{"type":"Point","coordinates":[-76.78827,17.97092]}},{"type":"Feature","properties":{"Publication_Year":1996,"Author":"Bent, Jennifer","Title":"How Anansi captured Tiger's stories","bookImgId":"","Publication_Title":"","Date":1996,"Publisher":"Dutton","Place":"London","Language":"English","Genre_":"","Link_Attachments":"","Automatic_Tags":"","ObjectId":110},"geometry":{"type":"Point","coordinates":[-0.1276986932,51.50740836]}},{"type":"Feature","properties":{"Publication_Year":1989,"Author":"Bernabé, Jean; Chamoiseau, Patrick; Confiant, Raphaël","Title":"Eloge de la créolité","bookImgId":"","Publication_Title":"","Date":1989,"Publisher":"Gallimard","Place":"Paris","Language":"French","Genre_":"","Link_Attachments":"","Automatic_Tags":"","ObjectId":2214},"geometry":{"type":"Point","coordinates":[2.3414,48.85717]}},{"type":"Feature","properties":{"Publication_Year":2003,"Author":"Besson, Sherwyn","Title":"Rationed freedoms","bookImgId":"","Publication_Title":"","Date":2003,"Publisher":"Sherwyn Besson","Place":"Bloomington, IN","Language":"English","Genre_":"","Link_Attachments":"","Automatic_Tags":"","ObjectId":156},"geometry":{"type":"Point","coordinates":[-86.5348,39.1666]}},{"type":"Feature","properties":{"Publication_Year":2001,"Author":"Beti, Mongo","Title":"The story of the madman","bookImgId":"","Publication_Title":"","Date":2001,"Publisher":"University Press of Virginia","Place":"Charlottesville","Language":"English","Genre_":"","Link_Attachments":"","Automatic_Tags":"","ObjectId":244},"geometry":{"type":"Point","coordinates":[-78.47756,38.03213]}},{"type":"Feature","properties":{"Publication_Year":2005,"Author":"Bettelli Lelio, Chiara","Title":"L'Avana: la citt?? sensuale di Leonardo Padura Fuentes","bookImgId":"","Publication_Title":"","Date":2005,"Publisher":"Unicopli","Place":"Milano","Language":"Italian","Genre_":"","Link_Attachments":"","Automatic_Tags":"","ObjectId":714},"geometry":{"type":"Point","coordinates":[9.18178,45.46796]}},{"type":"Feature","properties":{"Publication_Year":1970,"Author":"Bianchi Ross, Ciro","Title":"Tarjeta postal.","bookImgId":"","Publication_Title":"","Date":1970,"Publisher":"","Place":"La Habana","Language":"Undetermined","Genre_":"","Link_Attachments":"","Automatic_Tags":"","ObjectId":881},"geometry":{"type":"Point","coordinates":[-82.36749,23.13211]}},{"type":"Feature","properties":{"Publication_Year":1988,"Author":"Birbalsingh, Frank","Title":"Jahaji Bhai: an anthology of Indo-Caribbean literature","bookImgId":"","Publication_Title":"","Date":1988,"Publisher":"TSAR","Place":"Toronto","Language":"English","Genre_":"","Link_Attachments":"","Automatic_Tags":"","ObjectId":41},"geometry":{"type":"Point","coordinates":[-79.38544,43.64869]}},{"type":"Feature","properties":{"Publication_Year":2010,"Author":"Boadas, Aura Marina; Hern??ndez, Amelia","Title":"Krik-- krak--: cuentos de las Antillas","bookImgId":"","Publication_Title":"","Date":2010,"Publisher":"Monte ??vila Editores Latinoamericana","Place":"Caracas","Language":"Spanish","Genre_":"","Link_Attachments":"","Automatic_Tags":"","ObjectId":240},"geometry":{"type":"Point","coordinates":[-66.87919,10.48801]}},{"type":"Feature","properties":{"Publication_Year":1921,"Author":"Bobadilla, Emilio","Title":"Rojeces de Marte (sonetos)","bookImgId":"","Publication_Title":"","Date":1921,"Publisher":"Editorial Pueyo","Place":"Madrid","Language":"Spanish","Genre_":"","Link_Attachments":"","Automatic_Tags":"","ObjectId":415},"geometry":{"type":"Point","coordinates":[-3.69196,40.41955]}},{"type":"Feature","properties":{"Publication_Year":2001,"Author":"Bobes Le??n, Marilyn","Title":"Alquien tiene que llorar otra ves","bookImgId":"","Publication_Title":"","Date":2001,"Publisher":"Ediciones UNION","Place":"Habana","Language":"English","Genre_":"","Link_Attachments":"","Automatic_Tags":"","ObjectId":2434},"geometry":{"type":"Point","coordinates":[-82.36749,23.13211]}},{"type":"Feature","properties":{"Publication_Year":2005,"Author":"Bobes Le??n, Marilyn","Title":"Fiebre de invierno","bookImgId":"","Publication_Title":"","Date":2005,"Publisher":"Isla negra editores","Place":"San Juan, Puerto Rico; Santo Domingo","Language":"Spanish","Genre_":"","Link_Attachments":"","Automatic_Tags":"","ObjectId":2435},"geometry":{"type":"Point","coordinates":[-66.07229686,18.4037171]}},{"type":"Feature","properties":{"Publication_Year":2006,"Author":"Bobes Le??n, Marilyn","Title":"Fiebre de invierno","bookImgId":"","Publication_Title":"","Date":2006,"Publisher":"Isla Negra Editores","Place":"San Juan, P.R.","Language":"Spanish","Genre_":"","Link_Attachments":"","Automatic_Tags":"","ObjectId":2436},"geometry":{"type":"Point","coordinates":[-66.03690212,18.40998762]}},{"type":"Feature","properties":{"Publication_Year":2012,"Author":"Bobes Le??n, Marilyn","Title":"Fiebre de invierno","bookImgId":"","Publication_Title":"","Date":2012,"Publisher":"Eds. Uni??n","Place":"La Habana","Language":"Spanish","Genre_":"","Link_Attachments":"","Automatic_Tags":"","ObjectId":2437},"geometry":{"type":"Point","coordinates":[-82.36749,23.13211]}},{"type":"Feature","properties":{"Publication_Year":1998,"Author":"Bobes Le??n, Marilyn","Title":"Revicitaciones y homenajes","bookImgId":"","Publication_Title":"","Date":1998,"Publisher":"Eds. Uni??n","Place":"La Habana","Language":"Spanish","Genre_":"","Link_Attachments":"","Automatic_Tags":"","ObjectId":2442},"geometry":{"type":"Point","coordinates":[-82.36749,23.13211]}},{"type":"Feature","properties":{"Publication_Year":2009,"Author":"Bobes Le??n, Marilyn","Title":"M??s cuentos inflieles: (la otra cara de la moneda)","bookImgId":"","Publication_Title":"","Date":2009,"Publisher":"Ediciones UNI??N","Place":"El Vedado, La Habana","Language":"Spanish","Genre_":"","Link_Attachments":"","Automatic_Tags":"","ObjectId":2443},"geometry":{"type":"Point","coordinates":[-82.39341491,23.13777504]}},{"type":"Feature","properties":{"Publication_Year":2011,"Author":"Bobes Le??n, Marilyn","Title":"La Aguja racional poes??a 1978-2010","bookImgId":"","Publication_Title":"","Date":2011,"Publisher":"Eds. Uni??n","Place":"La Habana","Language":"Spanish","Genre_":"","Link_Attachments":"","Automatic_Tags":"","ObjectId":2444},"geometry":{"type":"Point","coordinates":[-82.36749,23.13211]}},{"type":"Feature","properties":{"Publication_Year":2009,"Author":"Bobes Le??n, Marilyn","Title":"Mujer perjura: novela","bookImgId":"","Publication_Title":"","Date":2009,"Publisher":"Ediciones Uni??n","Place":"Ciudad de La Habana","Language":"Spanish","Genre_":"","Link_Attachments":"","Automatic_Tags":"","ObjectId":2446},"geometry":{"type":"Point","coordinates":[-82.36749,23.13211]}},{"type":"Feature","properties":{"Publication_Year":2006,"Author":"Bobes Le??n, Marilyn","Title":"Cuentos infieles","bookImgId":"","Publication_Title":"","Date":2006,"Publisher":"Ediciones Uni??n","Place":"La Habana","Language":"Spanish","Genre_":"","Link_Attachments":"","Automatic_Tags":"","ObjectId":2447},"geometry":{"type":"Point","coordinates":[-82.36749,23.13211]}},{"type":"Feature","properties":{"Publication_Year":1995,"Author":"Bobes Le??n, Marilyn","Title":"Eros en la poes??a cubana","bookImgId":"","Publication_Title":"","Date":1995,"Publisher":"Letras Cubanas","Place":"La Habana, Cuba","Language":"Spanish","Genre_":"","Link_Attachments":"","Automatic_Tags":"","ObjectId":2449},"geometry":{"type":"Point","coordinates":[-82.36749,23.13211]}},{"type":"Feature","properties":{"Publication_Year":2001,"Author":"Bobes Le??n, Marilyn","Title":"Cuentistas Cubanas de hoy","bookImgId":"","Publication_Title":"","Date":2001,"Publisher":"Ediciones Instituto Movilizador de Fondos Cooperativos C.L","Place":"Buenos Aires","Language":"Spanish","Genre_":"","Link_Attachments":"","Automatic_Tags":"","ObjectId":2450},"geometry":{"type":"Point","coordinates":[-58.37344,-34.60849]}},{"type":"Feature","properties":{"Publication_Year":1995,"Author":"Bobes Le??n, Marilyn","Title":"Alguien tiene que llorar","bookImgId":"","Publication_Title":"","Date":1995,"Publisher":"Casa de las Am??ricas","Place":"Ciudad de la Habana","Language":"Spanish","Genre_":"","Link_Attachments":"","Automatic_Tags":"","ObjectId":2452},"geometry":{"type":"Point","coordinates":[-82.36749,23.13211]}},{"type":"Feature","properties":{"Publication_Year":1998,"Author":"Bobes Le??n, Marilyn","Title":"Alguien tiene que llorar","bookImgId":"","Publication_Title":"","Date":1998,"Publisher":"Ameghino Editora","Place":"Rosario, Argentina","Language":"Spanish","Genre_":"","Link_Attachments":"","Automatic_Tags":"","ObjectId":2453},"geometry":{"type":"Point","coordinates":[-60.65924,-32.9678]}},{"type":"Feature","properties":{"Publication_Year":2001,"Author":"Bobes Le??n, Marilyn","Title":"Alguien tiene que llorar: otra vez","bookImgId":"","Publication_Title":"","Date":2001,"Publisher":"Ediciones Uni??n","Place":"Ciudad de la Habana","Language":"Spanish","Genre_":"","Link_Attachments":"","Automatic_Tags":"","ObjectId":2454},"geometry":{"type":"Point","coordinates":[-82.36749,23.13211]}},{"type":"Feature","properties":{"Publication_Year":2016,"Author":"Bobes Le??n, Marilyn","Title":"Alguien tiene que llorar otra vez","bookImgId":"","Publication_Title":"","Date":2016,"Publisher":"Guantanamera","Place":"Sevilla","Language":"Spanish","Genre_":"","Link_Attachments":"","Automatic_Tags":"","ObjectId":2455},"geometry":{"type":"Point","coordinates":[-6.00196,37.38788]}},{"type":"Feature","properties":{"Publication_Year":2002,"Author":"Bobes Le??n, Marilyn; Carvajal D??vila, Rogelio","Title":"Cuentistas cubanas de hoy","bookImgId":"","Publication_Title":"","Date":2002,"Publisher":"Oc??ano","Place":"M??xico, D.F.","Language":"Spanish","Genre_":"","Link_Attachments":"","Automatic_Tags":"","ObjectId":2451},"geometry":{"type":"Point","coordinates":[-99.17850002,19.33767998]}},{"type":"Feature","properties":{"Publication_Year":2000,"Author":"Bobes Le??n, Marilyn; Valdez, Pedro Antonio; G??mez Beras, Carlos Roberto; Pausides, Alex","Title":"Los nuevos can??bales: antolog??a de la m??s reciente cuent??stica del Caribe hispano","bookImgId":"","Publication_Title":"","Date":2000,"Publisher":"Ediciones Uni??n ; Editorial Isla Negra ; Editora B??ho","Place":"Ciudad de la Habana, Cuba]; [San Juan, P.R.]; [Santo Domingo, Rep??blica Dominicana","Language":"Spanish","Genre_":"","Link_Attachments":"","Automatic_Tags":"","ObjectId":675},"geometry":{"type":"Point","coordinates":[-69.84916568,18.56719817]}},{"type":"Feature","properties":{"Publication_Year":2003,"Author":"Bobes, Marilyn","Title":"Las musas inquietantes --: antolog??a sobre la infidelidad","bookImgId":"","Publication_Title":"","Date":2003,"Publisher":"Eds. Uni??n : Lectorum","Place":"M??xico","Language":"Spanish","Genre_":"","Link_Attachments":"","Automatic_Tags":"","ObjectId":2440},"geometry":{"type":"Point","coordinates":[-99.13315,19.43194]}},{"type":"Feature","properties":{"Publication_Year":2016,"Author":"Bobes, Marilyn","Title":"??Te gusta Peter Handke?: mis mejores cuentos","bookImgId":"","Publication_Title":"","Date":2016,"Publisher":"Verbum","Place":"Madrid","Language":"Spanish","Genre_":"","Link_Attachments":"","Automatic_Tags":"","ObjectId":2441},"geometry":{"type":"Point","coordinates":[-3.69196,40.41955]}},{"type":"Feature","properties":{"Publication_Year":2003,"Author":"Bobes, Marilyn","Title":"Impresiones y comentarios","bookImgId":"","Publication_Title":"","Date":2003,"Publisher":"Letras cubanas","Place":"La Habana","Language":"Spanish","Genre_":"","Link_Attachments":"","Automatic_Tags":"","ObjectId":2445},"geometry":{"type":"Point","coordinates":[-82.36749,23.13211]}},{"type":"Feature","properties":{"Publication_Year":1989,"Author":"Bobes, Marilyn","Title":"Hallar el modo","bookImgId":"","Publication_Title":"","Date":1989,"Publisher":"Letras Cubanas","Place":"La Habana","Language":"Spanish","Genre_":"","Link_Attachments":"","Automatic_Tags":"","ObjectId":2448},"geometry":{"type":"Point","coordinates":[-82.36749,23.13211]}},{"type":"Feature","properties":{"Publication_Year":2018,"Author":"Bobes, Marilyn","Title":"Alguien tiene que llorar otra vez","bookImgId":"","Publication_Title":"","Date":2018,"Publisher":"Guantanamera","Place":"Sevilla","Language":"Spanish","Genre_":"","Link_Attachments":"","Automatic_Tags":"","ObjectId":2456},"geometry":{"type":"Point","coordinates":[-6.00196,37.38788]}},{"type":"Feature","properties":{"Publication_Year":2007,"Author":"Bonneville, Ren??","Title":"La vierge cubaine","bookImgId":"","Publication_Title":"","Date":2007,"Publisher":"Alexander Street Press","Place":"Alexandria, VA","Language":"French","Genre_":"","Link_Attachments":"","Automatic_Tags":"","ObjectId":348},"geometry":{"type":"Point","coordinates":[-77.04341,38.8046]}},{"type":"Feature","properties":{"Publication_Year":2007,"Author":"Bonneville, Ren??","Title":"Les soeurs ennemies","bookImgId":"","Publication_Title":"","Date":2007,"Publisher":"Alexander Street Press","Place":"Alexandria, VA","Language":"French","Genre_":"","Link_Attachments":"","Automatic_Tags":"","ObjectId":349},"geometry":{"type":"Point","coordinates":[-77.04341,38.8046]}},{"type":"Feature","properties":{"Publication_Year":2007,"Author":"Bonneville, Ren??","Title":"Le triomphe d'eglantine","bookImgId":"","Publication_Title":"","Date":2007,"Publisher":"Alexander Street Press","Place":"Alexandria, VA","Language":"French","Genre_":"","Link_Attachments":"","Automatic_Tags":"","ObjectId":350},"geometry":{"type":"Point","coordinates":[-77.04341,38.8046]}},{"type":"Feature","properties":{"Publication_Year":2004,"Author":"Braham, Persephone","Title":"Crimes against the state, crimes against persons: detective fiction in Cuba and Mexico","bookImgId":"","Publication_Title":"","Date":2004,"Publisher":"University of Minnesota Press","Place":"Minneapolis, Minn.","Language":"English","Genre_":"","Link_Attachments":"","Automatic_Tags":"","ObjectId":782},"geometry":{"type":"Point","coordinates":[-93.26494,44.97902]}},{"type":"Feature","properties":{"Publication_Year":2006,"Author":"Braithwaite, Kamau","Title":"The development of creole society in Jamaica, 1770-1820","bookImgId":"","Publication_Title":"","Date":2006,"Publisher":"Ian Randle ; Global [distributor","Place":"Kingston, Jamaica; London","Language":"English","Genre_":"","Link_Attachments":"","Automatic_Tags":"","ObjectId":492},"geometry":{"type":"Point","coordinates":[-76.78827,17.97092]}},{"type":"Feature","properties":{"Publication_Year":2001,"Author":"Braithwaite, Kamau","Title":"Odale's choice","bookImgId":"","Publication_Title":"","Date":2001,"Publisher":"Evans Brothers","Place":"London","Language":"English","Genre_":"","Link_Attachments":"","Automatic_Tags":"","ObjectId":495},"geometry":{"type":"Point","coordinates":[-0.1276986932,51.50740836]}},{"type":"Feature","properties":{"Publication_Year":1982,"Author":"Brand, Dionne","Title":"Primitive offensive","bookImgId":"","Publication_Title":"","Date":1982,"Publisher":"Williams-Wallace","Place":"Toronto, Ontario","Language":"English","Genre_":"","Link_Attachments":"","Automatic_Tags":"","ObjectId":293},"geometry":{"type":"Point","coordinates":[-79.38544,43.64869]}},{"type":"Feature","properties":{"Publication_Year":2003,"Author":"Brand, Dionne","Title":"In another place, not here","bookImgId":"","Publication_Title":"","Date":2003,"Publisher":"Grove Press","Place":"New York","Language":"eng","Genre_":"","Link_Attachments":"","Automatic_Tags":"","ObjectId":358},"geometry":{"type":"Point","coordinates":[-74.00714,40.71455]}},{"type":"Feature","properties":{"Publication_Year":2019,"Author":"BRAND, DIONNE","Title":"BLUE CLERK.","bookImgId":"","Publication_Title":"","Date":2019,"Publisher":"MCCLELLAND & STEWART","Place":"TORONTO","Language":"English","Genre_":"","Link_Attachments":"","Automatic_Tags":"","ObjectId":1294},"geometry":{"type":"Point","coordinates":[-79.38544,43.64869]}},{"type":"Feature","properties":{"Publication_Year":1984,"Author":"Brand, Dionne; McTair, Roger; Brand, Dionne","Title":"Winter epigrams & Epigrams to Ernesto Cardinal in defense of Claudia","bookImgId":"","Publication_Title":"","Date":1984,"Publisher":"Williams-Wallace","Place":"Toronto","Language":"English","Genre_":"","Link_Attachments":"","Automatic_Tags":"","ObjectId":292},"geometry":{"type":"Point","coordinates":[-79.38544,43.64869]}},{"type":"Feature","properties":{"Publication_Year":1983,"Author":"Brand, Dionne; Paton, Bruce","Title":"Grenada, October 25th, 1983","bookImgId":"","Publication_Title":"","Date":1983,"Publisher":"publisher not identified","Place":"Toronto?","Language":"English","Genre_":"","Link_Attachments":"","Automatic_Tags":"","ObjectId":294},"geometry":{"type":"Point","coordinates":[-79.38544,43.64869]}},{"type":"Feature","properties":{"Publication_Year":1949,"Author":"Brandon, Jacob","Title":"Selected essays of Jacob Brandon","bookImgId":"","Publication_Title":"","Date":1949,"Publisher":"Imp. P. Fernandez y Cía., S. en C.,","Place":"Habana, Cuba","Language":"en","Genre_":"","Link_Attachments":"https://www.dloc.com/AA00066624/00001/citation?search=caribbean+%3dliterature","Automatic_Tags":"","ObjectId":656},"geometry":{"type":"Point","coordinates":[-82.36749,23.13211]}},{"type":"Feature","properties":{"Publication_Year":1977,"Author":"Brathwaite, Edward","Title":"Nanny, Sam Sharpe and the struggle for people's liberation","bookImgId":"","Publication_Title":"","Date":1977,"Publisher":"API for the National Heritage Week","Place":"Kingston","Language":"English","Genre_":"","Link_Attachments":"","Automatic_Tags":"","ObjectId":391},"geometry":{"type":"Point","coordinates":[-76.78827,17.97092]}},{"type":"Feature","properties":{"Publication_Year":1971,"Author":"Brathwaite, Edward","Title":"Islands","bookImgId":"","Publication_Title":"","Date":1971,"Publisher":"Oxford Univ. Pr.","Place":"London","Language":"English","Genre_":"","Link_Attachments":"","Automatic_Tags":"","ObjectId":483},"geometry":{"type":"Point","coordinates":[-0.1276986932,51.50740836]}},{"type":"Feature","properties":{"Publication_Year":1970,"Author":"Brathwaite, Edward","Title":"Masks","bookImgId":"","Publication_Title":"","Date":1970,"Publisher":"Oxford Univ. Pr.","Place":"London","Language":"English","Genre_":"","Link_Attachments":"","Automatic_Tags":"","ObjectId":485},"geometry":{"type":"Point","coordinates":[-0.1276986932,51.50740836]}},{"type":"Feature","properties":{"Publication_Year":1969,"Author":"Brathwaite, Edward","Title":"Islands.","bookImgId":"","Publication_Title":"","Date":1969,"Publisher":"Oxford U.P.","Place":"London; New York","Language":"English","Genre_":"","Link_Attachments":"","Automatic_Tags":"","ObjectId":487},"geometry":{"type":"Point","coordinates":[-74.00372,40.7334]}},{"type":"Feature","properties":{"Publication_Year":1968,"Author":"Brathwaite, Edward","Title":"Masks","bookImgId":"","Publication_Title":"","Date":1968,"Publisher":"Oxford Univ. Pres","Place":"London, New York, Toronto","Language":"English","Genre_":"","Link_Attachments":"","Automatic_Tags":"","ObjectId":489},"geometry":{"type":"Point","coordinates":[-79.47863,43.69208]}},{"type":"Feature","properties":{"Publication_Year":1971,"Author":"Brathwaite, Edward","Title":"Odale's choice","bookImgId":"","Publication_Title":"","Date":1971,"Publisher":"Evans","Place":"London","Language":"English","Genre_":"","Link_Attachments":"","Automatic_Tags":"","ObjectId":543},"geometry":{"type":"Point","coordinates":[-0.1276986932,51.50740836]}},{"type":"Feature","properties":{"Publication_Year":1981,"Author":"Brathwaite, Edward","Title":"The arrivants: a new world trilogy","bookImgId":"","Publication_Title":"","Date":1981,"Publisher":"Oxford University Press","Place":"Oxford","Language":"English","Genre_":"","Link_Attachments":"","Automatic_Tags":"","ObjectId":1858},"geometry":{"type":"Point","coordinates":[-1.257628623,51.75198266]}},{"type":"Feature","properties":{"Publication_Year":1974,"Author":"Brathwaite, Edward Kamau","Title":"The African presence in Caribbean literature","bookImgId":"","Publication_Title":"","Date":1974,"Publisher":"The American Academy of Arts and Sciences","Place":"Cambridge, (Mass.","Language":"English","Genre_":"","Link_Attachments":"","Automatic_Tags":"","ObjectId":386},"geometry":{"type":"Point","coordinates":[-71.10601,42.36679]}},{"type":"Feature","properties":{"Publication_Year":1976,"Author":"Brathwaite, Edward Kamau","Title":"The love axe(l) developing a Caribbean aesthetic, 1962-1974","bookImgId":"","Publication_Title":"","Date":1976,"Publisher":"Cornell University, Africana Studies and Research Center","Place":"Wisconsin","Language":"English","Genre_":"","Link_Attachments":"","Automatic_Tags":"","ObjectId":389},"geometry":{"type":"Point","coordinates":[-89.73918542,44.64483337]}},{"type":"Feature","properties":{"Publication_Year":1977,"Author":"Brathwaite, Edward Kamau","Title":"Caribbean woman","bookImgId":"","Publication_Title":"","Date":1977,"Publisher":"Gemini","Place":"Kingston","Language":"English","Genre_":"","Link_Attachments":"","Automatic_Tags":"","ObjectId":392},"geometry":{"type":"Point","coordinates":[-76.78827,17.97092]}},{"type":"Feature","properties":{"Publication_Year":1979,"Author":"BRATHWAITE, Edward Kamau","Title":"Word making man: poem for Nicolas Guillen in Xaymaca","bookImgId":"","Publication_Title":"","Date":1979,"Publisher":"Savacou Publications","Place":"Kingston","Language":"English","Genre_":"","Link_Attachments":"","Automatic_Tags":"","ObjectId":397},"geometry":{"type":"Point","coordinates":[-76.78827,17.97092]}},{"type":"Feature","properties":{"Publication_Year":1979,"Author":"Brathwaite, Edward Kamau","Title":"New poets from Jamaica: an anthology","bookImgId":"","Publication_Title":"","Date":1979,"Publisher":"Savacou","Place":"Kingston","Language":"English","Genre_":"","Link_Attachments":"","Automatic_Tags":"","ObjectId":400},"geometry":{"type":"Point","coordinates":[-76.78827,17.97092]}},{"type":"Feature","properties":{"Publication_Year":2000,"Author":"Brathwaite, Edward Kamau","Title":"Black + blues","bookImgId":"","Publication_Title":"","Date":2000,"Publisher":"Bell & Howell Information and Learning Company.","Place":"Ann Arbor, MI","Language":"English","Genre_":"","Link_Attachments":"","Automatic_Tags":"","ObjectId":532},"geometry":{"type":"Point","coordinates":[-83.74847,42.2821]}},{"type":"Feature","properties":{"Publication_Year":1997,"Author":"Brathwaite, Edward Kamau","Title":"Odale's choice","bookImgId":"","Publication_Title":"","Date":1997,"Publisher":"Evans Brothers","Place":"London; Ibadan","Language":"English","Genre_":"","Link_Attachments":"","Automatic_Tags":"","ObjectId":533},"geometry":{"type":"Point","coordinates":[3.89639,7.38778]}},{"type":"Feature","properties":{"Publication_Year":1996,"Author":"Brathwaite, Edward Kamau","Title":"Roots","bookImgId":"","Publication_Title":"","Date":1996,"Publisher":"the University of Michigan Press","Place":"Ann Arbor","Language":"English","Genre_":"","Link_Attachments":"","Automatic_Tags":"","ObjectId":534},"geometry":{"type":"Point","coordinates":[-83.74847,42.2821]}},{"type":"Feature","properties":{"Publication_Year":1995,"Author":"Brathwaite, Edward Kamau","Title":"The People who came","bookImgId":"","Publication_Title":"","Date":1995,"Publisher":"Longman caribbean","Place":"San Juan","Language":"English","Genre_":"","Link_Attachments":"","Automatic_Tags":"","ObjectId":535},"geometry":{"type":"Point","coordinates":[-66.10473,18.46633]}},{"type":"Feature","properties":{"Publication_Year":1995,"Author":"Brathwaite, Edward Kamau","Title":"History of the voice: the development of nation language in Anglophone Caribbean poetry","bookImgId":"","Publication_Title":"","Date":1995,"Publisher":"New Beacon","Place":"London","Language":"English","Genre_":"","Link_Attachments":"","Automatic_Tags":"","ObjectId":536},"geometry":{"type":"Point","coordinates":[-0.1276986932,51.50740836]}},{"type":"Feature","properties":{"Publication_Year":1993,"Author":"Brathwaite, Edward Kamau","Title":"Odale's choice","bookImgId":"","Publication_Title":"","Date":1993,"Publisher":"Evans brothers","Place":"Londres","Language":"English","Genre_":"","Link_Attachments":"","Automatic_Tags":"","ObjectId":537},"geometry":{"type":"Point","coordinates":[-81.24624,42.9869]}},{"type":"Feature","properties":{"Publication_Year":1988,"Author":"Brathwaite, Edward Kamau","Title":"Mother poem","bookImgId":"","Publication_Title":"","Date":1988,"Publisher":"Oxford University Press","Place":"Oxford","Language":"English","Genre_":"","Link_Attachments":"","Automatic_Tags":"","ObjectId":538},"geometry":{"type":"Point","coordinates":[-1.257628623,51.75198266]}},{"type":"Feature","properties":{"Publication_Year":1987,"Author":"Brathwaite, Edward Kamau","Title":"Odale's choice.","bookImgId":"","Publication_Title":"","Date":1987,"Publisher":"Evans","Place":"London","Language":"Undetermined","Genre_":"","Link_Attachments":"","Automatic_Tags":"","ObjectId":539},"geometry":{"type":"Point","coordinates":[-0.1276986932,51.50740836]}},{"type":"Feature","properties":{"Publication_Year":1984,"Author":"Brathwaite, Edward Kamau","Title":"History of the voice: the development of nation language in anglophone Caribbean poetry","bookImgId":"","Publication_Title":"","Date":1984,"Publisher":"New Beacon","Place":"Londonk","Language":"English","Genre_":"","Link_Attachments":"","Automatic_Tags":"","ObjectId":540},"geometry":{"type":"Point","coordinates":[-0.1276986932,51.50740836]}},{"type":"Feature","properties":{"Publication_Year":1982,"Author":"Brathwaite, Edward Kamau","Title":"Mother poem","bookImgId":"","Publication_Title":"","Date":1982,"Publisher":"Oxford University Press","Place":"Oxford","Language":"English","Genre_":"","Link_Attachments":"","Automatic_Tags":"","ObjectId":541},"geometry":{"type":"Point","coordinates":[-1.257628623,51.75198266]}},{"type":"Feature","properties":{"Publication_Year":1982,"Author":"Brathwaite, Edward Kamau","Title":"Kumina","bookImgId":"","Publication_Title":"","Date":1982,"Publisher":"Savacou","Place":"Kingston","Language":"English","Genre_":"","Link_Attachments":"","Automatic_Tags":"","ObjectId":542},"geometry":{"type":"Point","coordinates":[-76.78827,17.97092]}},{"type":"Feature","properties":{"Publication_Year":1982,"Author":"Brathwaite, Edward Kamau","Title":"Nation, language, poetry.","bookImgId":"","Publication_Title":"","Date":1982,"Publisher":"SAVACOU Publications","Place":"Kingston, Mona","Language":"English","Genre_":"","Link_Attachments":"","Automatic_Tags":"","ObjectId":1857},"geometry":{"type":"Point","coordinates":[147.3107846,-42.98021629]}},{"type":"Feature","properties":{"Publication_Year":2010,"Author":"Brathwaite, Edward Kamau; Bonfiglio, Florencia","Title":"La unidad submarina: ensayos caribe??os","bookImgId":"","Publication_Title":"","Date":2010,"Publisher":"Katatay","Place":"Buenos Aires","Language":"Spanish","Genre_":"","Link_Attachments":"","Automatic_Tags":"","ObjectId":531},"geometry":{"type":"Point","coordinates":[-58.37344,-34.60849]}},{"type":"Feature","properties":{"Publication_Year":1974,"Author":"Brathwaite, Kamau","Title":"Caribbean man in space and time: a bibliographical and conceptual approach","bookImgId":"","Publication_Title":"","Date":1974,"Publisher":"Savacou Publications","Place":"Mona","Language":"English","Genre_":"","Link_Attachments":"","Automatic_Tags":"","ObjectId":8},"geometry":{"type":"Point","coordinates":[-111.85579,39.81908]}},{"type":"Feature","properties":{"Publication_Year":1994,"Author":"Brathwaite, Kamau","Title":"DreamStories","bookImgId":"","Publication_Title":"","Date":1994,"Publisher":"Longman","Place":"Essex, England; White Plains, N.Y.","Language":"English","Genre_":"","Link_Attachments":"","Automatic_Tags":"","ObjectId":91},"geometry":{"type":"Point","coordinates":[0.5372600869,51.81544003]}},{"type":"Feature","properties":{"Publication_Year":1982,"Author":"Brathwaite, Kamau","Title":"National language poetry","bookImgId":"","Publication_Title":"","Date":1982,"Publisher":"E.K. Brathwaite","Place":"Mona","Language":"English","Genre_":"","Link_Attachments":"","Automatic_Tags":"","ObjectId":205},"geometry":{"type":"Point","coordinates":[-111.85579,39.81908]}},{"type":"Feature","properties":{"Publication_Year":1993,"Author":"Brathwaite, Kamau","Title":"The Zea Mexican diary, 7 Sept 1926-7 Sept 1986","bookImgId":"","Publication_Title":"","Date":1993,"Publisher":"University of Wisconsin Press","Place":"Madison, Wis.","Language":"English","Genre_":"","Link_Attachments":"","Automatic_Tags":"","ObjectId":207},"geometry":{"type":"Point","coordinates":[-89.38644,43.07313]}},{"type":"Feature","properties":{"Publication_Year":1995,"Author":"Brathwaite, Kamau","Title":"English Caribbean literature and arts.","bookImgId":"","Publication_Title":"","Date":1995,"Publisher":"Americas Society","Place":"New York, NY","Language":"English","Genre_":"","Link_Attachments":"","Automatic_Tags":"","ObjectId":209},"geometry":{"type":"Point","coordinates":[-74.00714,40.71455]}},{"type":"Feature","properties":{"Publication_Year":1984,"Author":"Brathwaite, Kamau","Title":"History of the voice: the development of nation language in anglophone Carribean poetry","bookImgId":"","Publication_Title":"","Date":1984,"Publisher":"New Beacon","Place":"London","Language":"English","Genre_":"","Link_Attachments":"","Automatic_Tags":"","ObjectId":212},"geometry":{"type":"Point","coordinates":[-0.1276986932,51.50740836]}},{"type":"Feature","properties":{"Publication_Year":1993,"Author":"Brathwaite, Kamau","Title":"Roots","bookImgId":"","Publication_Title":"","Date":1993,"Publisher":"Univ. of Michigan Press","Place":"Ann Arbor","Language":"English","Genre_":"","Link_Attachments":"","Automatic_Tags":"","ObjectId":213},"geometry":{"type":"Point","coordinates":[-83.74847,42.2821]}},{"type":"Feature","properties":{"Publication_Year":1984,"Author":"Brathwaite, Kamau","Title":"The colonial encounter: language","bookImgId":"","Publication_Title":"","Date":1984,"Publisher":"Center for Commonwealth Lit and Research","Place":"Mysore","Language":"English","Genre_":"","Link_Attachments":"","Automatic_Tags":"","ObjectId":214},"geometry":{"type":"Point","coordinates":[76.65303,12.30906]}},{"type":"Feature","properties":{"Publication_Year":2002,"Author":"Brathwaite, Kamau","Title":"Kamau monograph.","bookImgId":"","Publication_Title":"","Date":2002,"Publisher":"The University of The West Indies","Place":"Kingston, Jamaica","Language":"English","Genre_":"","Link_Attachments":"","Automatic_Tags":"","ObjectId":215},"geometry":{"type":"Point","coordinates":[-76.78827,17.97092]}},{"type":"Feature","properties":{"Publication_Year":2010,"Author":"Brathwaite, Kamau","Title":"The arrivants: a new world trilogy","bookImgId":"","Publication_Title":"","Date":2010,"Publisher":"Oxford Univ. Press","Place":"Oxford","Language":"eng","Genre_":"","Link_Attachments":"","Automatic_Tags":"","ObjectId":364},"geometry":{"type":"Point","coordinates":[-1.257628623,51.75198266]}},{"type":"Feature","properties":{"Publication_Year":2010,"Author":"Brathwaite, Kamau","Title":"The arrivants: a new world trilogy","bookImgId":"","Publication_Title":"","Date":2010,"Publisher":"Oxford Univ. Press","Place":"Oxford","Language":"eng","Genre_":"","Link_Attachments":"","Automatic_Tags":"","ObjectId":365},"geometry":{"type":"Point","coordinates":[-1.257628623,51.75198266]}},{"type":"Feature","properties":{"Publication_Year":2010,"Author":"Brathwaite, Kamau","Title":"The arrivants: a new world trilogy","bookImgId":"","Publication_Title":"","Date":2010,"Publisher":"Oxford Univ. Press","Place":"Oxford","Language":"eng","Genre_":"","Link_Attachments":"","Automatic_Tags":"","ObjectId":366},"geometry":{"type":"Point","coordinates":[-1.257628623,51.75198266]}},{"type":"Feature","properties":{"Publication_Year":1994,"Author":"Brathwaite, Kamau","Title":"Trench Town Rock","bookImgId":"","Publication_Title":"","Date":"7/1/94","Publisher":"Lost Roads Publishers","Place":"Providence","Language":"English","Genre_":"","Link_Attachments":"https://www.amazon.com/Trench-Town-Rock-Lost-Roads/dp/0918786452/ref=sr_1_6?keywords=Kamau+Brathwaite&qid=1636937395&s=books&sr=1-6","Automatic_Tags":"","ObjectId":367},"geometry":{"type":"Point","coordinates":[-71.41199,41.82387]}},{"type":"Feature","properties":{"Publication_Year":2005,"Author":"Brathwaite, Kamau","Title":"Born to Slow Horses","bookImgId":"","Publication_Title":"","Date":"8/30/05","Publisher":"Wesleyan","Place":"Middletown, Conn","Language":"English","Genre_":"","Link_Attachments":"https://www.amazon.com/Born-Slow-Horses-Wesleyan-Poetry/dp/0819567450/ref=sr_1_4?keywords=Kamau+Brathwaite&qid=1636937395&s=books&sr=1-4","Automatic_Tags":"","ObjectId":368},"geometry":{"type":"Point","coordinates":[-72.64977,41.56268]}},