{"type":"FeatureCollection","crs":{"type":"name","properties":{"name":"EPSG:4326"}},"features":[{"type":"Feature","id":1,"geometry":{"type":"Point","coordinates":[-72.5329000003644,42.3731200001907]},"properties":{"Publisher":"University of Massachusetts Press","city":"Amherst","country":"United States","Pub_Location":"Amherst, United States","ObjectId":1}},{"type":"Feature","id":2,"geometry":{"type":"Point","coordinates":[2.34139999961038,48.8571699999716]},"properties":{"Publisher":"Contemporary French Fiction","city":"Paris","country":"France","Pub_Location":"Paris, France","ObjectId":2}},{"type":"Feature","id":3,"geometry":{"type":"Point","coordinates":[-76.7241400004327,39.1928900001115]},"properties":{"Publisher":"Ediciones Del Norte","city":"Hanover","country":"United States","Pub_Location":"Hanover, United States","ObjectId":3}},{"type":"Feature","id":4,"geometry":{"type":"Point","coordinates":[-0.12769869318213,51.5074083600845]},"properties":{"Publisher":"Faber and Faber","city":"London","country":"England","Pub_Location":"London, England","ObjectId":4}},{"type":"Feature","id":5,"geometry":{"type":"Point","coordinates":[2.17000999985347,41.3880400003367]},"properties":{"Publisher":"Casiopea","city":"Barcelona","country":"Spain","Pub_Location":"Barcelona, Spain","ObjectId":5}},{"type":"Feature","id":6,"geometry":{"type":"Point","coordinates":[-66.1047299997589,18.466330000028]},"properties":{"Publisher":"Editorial Plaza Mayor","city":"San Juan","country":"Puerto Rico","Pub_Location":"San Juan, Puerto Rico","ObjectId":6}},{"type":"Feature","id":7,"geometry":{"type":"Point","coordinates":[-66.1047299997589,18.466330000028]},"properties":{"Publisher":"Ediciones Callejon","city":"San Juan","country":"Puerto Rico","Pub_Location":"San Juan, Puerto Rico","ObjectId":7}},{"type":"Feature","id":8,"geometry":{"type":"Point","coordinates":[-80.1977300002116,25.7748099999689]},"properties":{"Publisher":"Ediciones Universal","city":"Miami, FL","country":"United States","Pub_Location":"Miami, FL, United States","ObjectId":8}},{"type":"Feature","id":9,"geometry":{"type":"Point","coordinates":[-66.1047299997589,18.466330000028]},"properties":{"Publisher":"Editorial de la Universidad de Puerto Rico","city":"San Juan","country":"Puerto Rico","Pub_Location":"San Juan, Puerto Rico","ObjectId":9}},{"type":"Feature","id":10,"geometry":{"type":"Point","coordinates":[-82.3674899998199,23.1321100003351]},"properties":{"Publisher":"Editorial Letras Cubanas","city":"Havana","country":"Cuba","Pub_Location":"Havana, Cuba","ObjectId":10}},{"type":"Feature","id":11,"geometry":{"type":"Point","coordinates":[-3.69195999973829,40.4195499997197]},"properties":{"Publisher":"Alfaguara","city":"Madrid","country":"Spain","Pub_Location":"Madrid, Spain","ObjectId":11}},{"type":"Feature","id":12,"geometry":{"type":"Point","coordinates":[-84.196697500222,44.1251998339073]},"properties":{"Publisher":"Audible Studios on Brilliance Audio","city":"Michigan","country":"United States","Pub_Location":"Michigan, United States","ObjectId":12}},{"type":"Feature","id":13,"geometry":{"type":"Point","coordinates":[-80.1977300002116,25.7748099999689]},"properties":{"Publisher":"Ediciones Universal","city":"Miami, FL","country":"United States","Pub_Location":"Miami, FL, United States","ObjectId":13}},{"type":"Feature","id":14,"geometry":{"type":"Point","coordinates":[-99.1331499997017,19.4319399995919]},"properties":{"Publisher":"Kosmos","city":"Mexico City","country":"Mexico","Pub_Location":"Mexico City, Mexico","ObjectId":14}},{"type":"Feature","id":15,"geometry":{"type":"Point","coordinates":[2.34139999961038,48.8571699999716]},"properties":{"Publisher":"France Loisirs","city":"Paris","country":"France","Pub_Location":"Paris, France","ObjectId":15}},{"type":"Feature","id":16,"geometry":{"type":"Point","coordinates":[-61.3973799996306,10.6408999996377]},"properties":{"Publisher":"University of the West Indies","city":"St. Augustine","country":"Trinidad & Tobago","Pub_Location":"St. Augustine, Trinidad & Tobago","ObjectId":16}},{"type":"Feature","id":17,"geometry":{"type":"Point","coordinates":[-66.8791900003001,10.4880100003147]},"properties":{"Publisher":"Monte Avila Editores","city":"Caracas","country":"Venezuela","Pub_Location":"Caracas, Venezuela","ObjectId":17}},{"type":"Feature","id":18,"geometry":{"type":"Point","coordinates":[2.17000999985347,41.3880400003367]},"properties":{"Publisher":"Argos Vergara","city":"Barcelona","country":"Spain","Pub_Location":"Barcelona, Spain","ObjectId":18}},{"type":"Feature","id":19,"geometry":{"type":"Point","coordinates":[-76.7882700000323,17.970919999744]},"properties":{"Publisher":"Sangster's Book Stores","city":"Kingston","country":"Jamaica","Pub_Location":"Kingston, Jamaica","ObjectId":19}},{"type":"Feature","id":20,"geometry":{"type":"Point","coordinates":[-76.7882700000323,17.970919999744]},"properties":{"Publisher":"Lithographic Printers Limited","city":"Kingston","country":"Jamaica","Pub_Location":"Kingston, Jamaica","ObjectId":20}},{"type":"Feature","id":21,"geometry":{"type":"Point","coordinates":[-76.7882700000323,17.970919999744]},"properties":{"Publisher":"Printed by Printers Ltd.","city":"Kingston","country":"Jamaica","Pub_Location":"Kingston, Jamaica","ObjectId":21}},{"type":"Feature","id":22,"geometry":{"type":"Point","coordinates":[-80.1977300002116,25.7748099999689]},"properties":{"Publisher":"Ediciones Universal","city":"Miami, FL","country":"United States","Pub_Location":"Miami, FL, United States","ObjectId":22}},{"type":"Feature","id":23,"geometry":{"type":"Point","coordinates":[-83.7484699998585,42.2820999997885]},"properties":{"Publisher":"University of Michigan Press","city":"Ann Arbor, MI","country":"United States","Pub_Location":"Ann Arbor, MI, United States","ObjectId":23}},{"type":"Feature","id":24,"geometry":{"type":"Point","coordinates":[-76.7882700000323,17.970919999744]},"properties":{"Publisher":"City Printery","city":"Kingston","country":"Jamaica","Pub_Location":"Kingston, Jamaica","ObjectId":24}},{"type":"Feature","id":25,"geometry":{"type":"Point","coordinates":[2.17000999985347,41.3880400003367]},"properties":{"Publisher":"Tusquets Editores S.A.","city":"Barcelona","country":"Spain","Pub_Location":"Barcelona, Spain","ObjectId":25}},{"type":"Feature","id":26,"geometry":{"type":"Point","coordinates":[2.17000999985347,41.3880400003367]},"properties":{"Publisher":"Seix Barral","city":"Barcelona","country":"Spain","Pub_Location":"Barcelona, Spain","ObjectId":26}},{"type":"Feature","id":27,"geometry":{"type":"Point","coordinates":[-0.12769869318213,51.5074083600845]},"properties":{"Publisher":"Penguin Books","city":"London","country":"England","Pub_Location":"London, England","ObjectId":27}},{"type":"Feature","id":28,"geometry":{"type":"Point","coordinates":[-76.7882700000323,17.970919999744]},"properties":{"Publisher":"Sangster's Book Stores","city":"Kingston","country":"Jamaica","Pub_Location":"Kingston, Jamaica","ObjectId":28}},{"type":"Feature","id":29,"geometry":{"type":"Point","coordinates":[-0.12769869318213,51.5074083600845]},"properties":{"Publisher":"Faber and Faber","city":"London","country":"England","Pub_Location":"London, England","ObjectId":29}},{"type":"Feature","id":30,"geometry":{"type":"Point","coordinates":[-72.6497699995648,41.5626799999218]},"properties":{"Publisher":"Wesleyan University Press","city":"Middletown, CT","country":"United States","Pub_Location":"Middletown, CT, United States","ObjectId":30}},{"type":"Feature","id":31,"geometry":{"type":"Point","coordinates":[-4.41965000013932,36.7184700002344]},"properties":{"Publisher":"Dador Ediciones","city":"Málaga","country":"Spain","Pub_Location":"Málaga, Spain","ObjectId":31}},{"type":"Feature","id":32,"geometry":{"type":"Point","coordinates":[-76.7882700000323,17.970919999744]},"properties":{"Publisher":"Sangster's Book Stores","city":"Kingston","country":"Jamaica","Pub_Location":"Kingston, Jamaica","ObjectId":32}},{"type":"Feature","id":33,"geometry":{"type":"Point","coordinates":[-74.0071400003009,40.7145500001758]},"properties":{"Publisher":"Penguin Books","city":"New York, NY","country":"United States","Pub_Location":"New York, NY, United States","ObjectId":33}},{"type":"Feature","id":34,"geometry":{"type":"Point","coordinates":[-0.779001067845703,50.8364921819213]},"properties":{"Publisher":"Hot Key Books Ltd","city":"Chichester","country":"England","Pub_Location":"Chichester, West Sussex, England","ObjectId":34}},{"type":"Feature","id":35,"geometry":{"type":"Point","coordinates":[-4.41965000013932,36.7184700002344]},"properties":{"Publisher":"Dador Ediciones","city":"Málaga","country":"Spain","Pub_Location":"Málaga, Spain","ObjectId":35}},{"type":"Feature","id":36,"geometry":{"type":"Point","coordinates":[-76.7882700000323,17.970919999744]},"properties":{"Publisher":"Sangster's Book Stores","city":"Kingston","country":"Jamaica","Pub_Location":"Kingston, Jamaica","ObjectId":36}},{"type":"Feature","id":37,"geometry":{"type":"Point","coordinates":[20.4632900004034,44.8130999997737]},"properties":{"Publisher":"Srpska knjizevna zadruga","city":"Beograd","country":"Serbia","Pub_Location":"Beograd, Serbia","ObjectId":37}},{"type":"Feature","id":38,"geometry":{"type":"Point","coordinates":[-74.0071400003009,40.7145500001758]},"properties":{"Publisher":"House of Nehesi","city":"New York, NY","country":"United States","Pub_Location":"New York, NY, United States","ObjectId":38}},{"type":"Feature","id":39,"geometry":{"type":"Point","coordinates":[-95.7836699325279,29.5725200533384]},"properties":{"Publisher":"Hogarth Press","city":"Richmond","country":"London","Pub_Location":"Richmond, Londonland","ObjectId":39}},{"type":"Feature","id":40,"geometry":{"type":"Point","coordinates":[2.17000999985347,41.3880400003367]},"properties":{"Publisher":"Montesinos","city":"Barcelona","country":"Spain","Pub_Location":"Barcelona, Spain","ObjectId":40}},{"type":"Feature","id":41,"geometry":{"type":"Point","coordinates":[-76.7882700000323,17.970919999744]},"properties":{"Publisher":"Sangster's Book Stores","city":"Kingston","country":"Jamaica","Pub_Location":"Kingston, Jamaica","ObjectId":41}},{"type":"Feature","id":42,"geometry":{"type":"Point","coordinates":[2.34139999961038,48.8571699999716]},"properties":{"Publisher":"Éditions du Seuil","city":"Paris","country":"France","Pub_Location":"Paris, France","ObjectId":42}},{"type":"Feature","id":43,"geometry":{"type":"Point","coordinates":[-1.25762862282567,51.7519826571134]},"properties":{"Publisher":"Heinemann","city":"Oxford","country":"England","Pub_Location":"Oxford, England","ObjectId":43}},{"type":"Feature","id":44,"geometry":{"type":"Point","coordinates":[-71.4119899996915,41.8238699997765]},"properties":{"Publisher":"Lost Roads Publishers","city":"Providence, RI","country":"United States","Pub_Location":"Providence, RI, United States","ObjectId":44}},{"type":"Feature","id":45,"geometry":{"type":"Point","coordinates":[2.17000999985347,41.3880400003367]},"properties":{"Publisher":"Montesinos","city":"Barcelona","country":"Spain","Pub_Location":"Barcelona, Spain","ObjectId":45}},{"type":"Feature","id":46,"geometry":{"type":"Point","coordinates":[-76.7882700000323,17.970919999744]},"properties":{"Publisher":"The Jamaica Daily News","city":"Kingston","country":"Jamaica","Pub_Location":"Kingston, Jamaica","ObjectId":46}},{"type":"Feature","id":47,"geometry":{"type":"Point","coordinates":[26.1029800001167,44.4342900001711]},"properties":{"Publisher":"Editura Militara","city":"Bucuresti","country":"Romania","Pub_Location":"Bucuresti, Romania","ObjectId":47}},{"type":"Feature","id":48,"geometry":{"type":"Point","coordinates":[-0.376859999996823,39.4689399999737]},"properties":{"Publisher":"Edicions Tres i Quatre","city":"Valencia","country":"Spain","Pub_Location":"Valencia, Spain","ObjectId":48}},{"type":"Feature","id":49,"geometry":{"type":"Point","coordinates":[-72.6497699995648,41.5626799999218]},"properties":{"Publisher":"Wesleyan University Press","city":"Middletown, CT","country":"United States","Pub_Location":"Middletown, CT, United States","ObjectId":49}},{"type":"Feature","id":50,"geometry":{"type":"Point","coordinates":[-66.8791900003001,10.4880100003147]},"properties":{"Publisher":"Monte Avila","city":"Caracas","country":"Venezuela","Pub_Location":"Caracas, Venezuela","ObjectId":50}},{"type":"Feature","id":51,"geometry":{"type":"Point","coordinates":[8.65013000003935,49.8726399999088]},"properties":{"Publisher":"Luchterhand","city":"Darmstadt","country":"Germany","Pub_Location":"Darmstadt, Germany","ObjectId":51}},{"type":"Feature","id":52,"geometry":{"type":"Point","coordinates":[-76.7882700000323,17.970919999744]},"properties":{"Publisher":"Longman Inc.","city":"Kingston","country":"Jamaica","Pub_Location":"Kingston, Jamaica","ObjectId":52}},{"type":"Feature","id":53,"geometry":{"type":"Point","coordinates":[2.34139999961038,48.8571699999716]},"properties":{"Publisher":"CareOf Publishing","city":"Paris","country":"France","Pub_Location":"Paris, France","ObjectId":53}},{"type":"Feature","id":54,"geometry":{"type":"Point","coordinates":[-74.0071400003009,40.7145500001758]},"properties":{"Publisher":"New Directions","city":"New York, NY","country":"United States","Pub_Location":"New York, NY, United States","ObjectId":54}},{"type":"Feature","id":55,"geometry":{"type":"Point","coordinates":[-64.7771399995994,46.0879709999462]},"properties":{"Publisher":"Bouton d'or Acadie","city":"Moncton","country":"Canada","Pub_Location":"Moncton, Canada","ObjectId":55}},{"type":"Feature","id":56,"geometry":{"type":"Point","coordinates":[2.17000999985347,41.3880400003367]},"properties":{"Publisher":"Montesinos","city":"Barcelona","country":"Spain","Pub_Location":"Barcelona, Spain","ObjectId":56}},{"type":"Feature","id":57,"geometry":{"type":"Point","coordinates":[-74.0071400003009,40.7145500001758]},"properties":{"Publisher":"New Directions","city":"New York, NY","country":"United States","Pub_Location":"New York, NY, United States","ObjectId":57}},{"type":"Feature","id":58,"geometry":{"type":"Point","coordinates":[2.34139999961038,48.8571699999716]},"properties":{"Publisher":"CareOf Publishing","city":"Paris","country":"France","Pub_Location":"Paris, France","ObjectId":58}},{"type":"Feature","id":59,"geometry":{"type":"Point","coordinates":[-95.9935200004139,36.1501099999736]},"properties":{"Publisher":"Deutsch","city":"Tulsa, OK","country":"United States","Pub_Location":"Tulsa, OK, United States","ObjectId":59}},{"type":"Feature","id":60,"geometry":{"type":"Point","coordinates":[-0.12769869318213,51.5074083600845]},"properties":{"Publisher":"Penguin Books","city":"London","country":"England","Pub_Location":"London, England","ObjectId":60}},{"type":"Feature","id":61,"geometry":{"type":"Point","coordinates":[-0.12769869318213,51.5074083600845]},"properties":{"Publisher":"Dutton","city":"London","country":"England","Pub_Location":"London, England","ObjectId":61}},{"type":"Feature","id":62,"geometry":{"type":"Point","coordinates":[-0.12769869318213,51.5074083600845]},"properties":{"Publisher":"Penguin Books","city":"London","country":"England","Pub_Location":"London, England","ObjectId":62}},{"type":"Feature","id":63,"geometry":{"type":"Point","coordinates":[2.34139999961038,48.8571699999716]},"properties":{"Publisher":"Gallimard","city":"Paris","country":"France","Pub_Location":"Paris, France","ObjectId":63}},{"type":"Feature","id":64,"geometry":{"type":"Point","coordinates":[-0.12769869318213,51.5074083600845]},"properties":{"Publisher":"New Beacon Books","city":"London","country":"England","Pub_Location":"London, England","ObjectId":64}},{"type":"Feature","id":65,"geometry":{"type":"Point","coordinates":[-3.69195999973829,40.4195499997197]},"properties":{"Publisher":"Editorial Betania","city":"Madrid","country":"Spain","Pub_Location":"Madrid, Spain","ObjectId":65}},{"type":"Feature","id":66,"geometry":{"type":"Point","coordinates":[-72.5329000003644,42.3731200001907]},"properties":{"Publisher":"Massachusetts Review, Inc.","city":"Amherst, MA","country":"United States","Pub_Location":"Amherst, MA, United States","ObjectId":66}},{"type":"Feature","id":67,"geometry":{"type":"Point","coordinates":[24.9326499997582,60.1711599999687]},"properties":{"Publisher":"Kirjayhtymä","city":"Helsinki","country":"Finland","Pub_Location":"Helsinki, Finland","ObjectId":67}},{"type":"Feature","id":68,"geometry":{"type":"Point","coordinates":[-93.3052399996031,44.8213500002884]},"properties":{"Publisher":"Sherwyn Besson","city":"Bloomington","country":"United States","Pub_Location":"Bloomington, United States","ObjectId":68}},{"type":"Feature","id":69,"geometry":{"type":"Point","coordinates":[-0.12769869318213,51.5074083600845]},"properties":{"Publisher":"New Beacon Books","city":"London","country":"England","Pub_Location":"London, England","ObjectId":69}},{"type":"Feature","id":70,"geometry":{"type":"Point","coordinates":[2.17000999985347,41.3880400003367]},"properties":{"Publisher":"Plaza & Janés","city":"Barcelona","country":"Spain","Pub_Location":"Barcelona, Spain","ObjectId":70}},{"type":"Feature","id":71,"geometry":{"type":"Point","coordinates":[-77.0319599999298,38.8903699998457]},"properties":{"Publisher":"United States Congressional Serial Set","city":"Washington, DC","country":"United States","Pub_Location":"Washington, DC, United States","ObjectId":71}},{"type":"Feature","id":72,"geometry":{"type":"Point","coordinates":[2.34139999961038,48.8571699999716]},"properties":{"Publisher":"Éditions Rivages","city":"Paris","country":"France","Pub_Location":"Paris, France","ObjectId":72}},{"type":"Feature","id":73,"geometry":{"type":"Point","coordinates":[-1.55026794113243,53.8007185979777]},"properties":{"Publisher":"Peepal Tree Press","city":"Leeds","country":"England","Pub_Location":"Leeds, England","ObjectId":73}},{"type":"Feature","id":74,"geometry":{"type":"Point","coordinates":[-76.7427600002659,18.0124500001026]},"properties":{"Publisher":"Savacou Cooperative","city":"Mona","country":"Jamaica","Pub_Location":"Mona, Jamaica","ObjectId":74}},{"type":"Feature","id":75,"geometry":{"type":"Point","coordinates":[2.17000999985347,41.3880400003367]},"properties":{"Publisher":"Plaza & Janés","city":"Barcelona","country":"Spain","Pub_Location":"Barcelona, Spain","ObjectId":75}},{"type":"Feature","id":76,"geometry":{"type":"Point","coordinates":[-58.3734400004338,-34.608490000255]},"properties":{"Publisher":"Editorial Jorge Álvarez","city":"Buenos Aires","country":"Argentina","Pub_Location":"Buenos Aires, Argentina","ObjectId":76}},{"type":"Feature","id":77,"geometry":{"type":"Point","coordinates":[2.34139999961038,48.8571699999716]},"properties":{"Publisher":"Presses de la Renaissance","city":"Paris","country":"France","Pub_Location":"Paris, France","ObjectId":77}},{"type":"Feature","id":78,"geometry":{"type":"Point","coordinates":[9.18178000021683,45.4679599999981]},"properties":{"Publisher":"Unicopli","city":"Milan","country":"Italy","Pub_Location":"Milan, Italy","ObjectId":78}},{"type":"Feature","id":79,"geometry":{"type":"Point","coordinates":[-79.3839069998151,43.6535240000335]},"properties":{"Publisher":"TSAR Publications","city":"Toronto","country":"Canada","Pub_Location":"Toronto, Canada","ObjectId":79}},{"type":"Feature","id":80,"geometry":{"type":"Point","coordinates":[-62.7226299998661,17.2969699996281]},"properties":{"Publisher":"Caribbean Reads Publishing","city":"Basseterre","country":"St. Kitts & Nevis","Pub_Location":"Basseterre, St. Kitts & Nevis","ObjectId":80}},{"type":"Feature","id":81,"geometry":{"type":"Point","coordinates":[6.14275000026606,46.2083299997675]},"properties":{"Publisher":"International Organization for Migration","city":"Geneva","country":"Switzerland","Pub_Location":"Geneva, Switzerland","ObjectId":81}},{"type":"Feature","id":82,"geometry":{"type":"Point","coordinates":[-3.69195999973829,40.4195499997197]},"properties":{"Publisher":"Editorial Pueyo","city":"Madrid","country":"Spain","Pub_Location":"Madrid, Spain","ObjectId":82}},{"type":"Feature","id":83,"geometry":{"type":"Point","coordinates":[-3.69195999973829,40.4195499997197]},"properties":{"Publisher":"V.Suárez & Co. Inc.","city":"Madrid","country":"Spain","Pub_Location":"Madrid, Spain","ObjectId":83}},{"type":"Feature","id":84,"geometry":{"type":"Point","coordinates":[2.17081999996537,41.3877800001132]},"properties":{"Publisher":"Editorial Letras Cubanas","city":"Havana","country":"Spain","Pub_Location":"Havana, Spain","ObjectId":84}},{"type":"Feature","id":85,"geometry":{"type":"Point","coordinates":[-82.3674899998199,23.1321100003351]},"properties":{"Publisher":"Ediciones Unión","city":"Havana","country":"Cuba","Pub_Location":"Havana, Cuba","ObjectId":85}},{"type":"Feature","id":86,"geometry":{"type":"Point","coordinates":[-66.1047299997589,18.466330000028]},"properties":{"Publisher":"Isla Negra Editores","city":"San Juan","country":"Puerto Rico","Pub_Location":"San Juan, Puerto Rico","ObjectId":86}},{"type":"Feature","id":87,"geometry":{"type":"Point","coordinates":[-66.1047299997589,18.466330000028]},"properties":{"Publisher":"Isla Negra editores","city":"San Juan","country":"Puerto Rico","Pub_Location":"San Juan, Puerto Rico","ObjectId":87}},{"type":"Feature","id":88,"geometry":{"type":"Point","coordinates":[-66.1047299997589,18.466330000028]},"properties":{"Publisher":"Isla Negra Editores","city":"San Juan","country":"Puerto Rico","Pub_Location":"San Juan, Puerto Rico","ObjectId":88}},{"type":"Feature","id":89,"geometry":{"type":"Point","coordinates":[-82.3674899998199,23.1321100003351]},"properties":{"Publisher":"Isla Negra Editores","city":"Havana","country":"Cuba","Pub_Location":"Havana, Cuba","ObjectId":89}},{"type":"Feature","id":90,"geometry":{"type":"Point","coordinates":[-6.001960000345,37.3878800003226]},"properties":{"Publisher":"Guantanamera","city":"Seville","country":"Spain","Pub_Location":"Seville, Spain","ObjectId":90}},{"type":"Feature","id":91,"geometry":{"type":"Point","coordinates":[-82.3674899998199,23.1321100003351]},"properties":{"Publisher":"Ediciones Unión","city":"Havana","country":"Cuba","Pub_Location":"Havana, Cuba","ObjectId":91}},{"type":"Feature","id":92,"geometry":{"type":"Point","coordinates":[-82.3674899998199,23.1321100003351]},"properties":{"Publisher":"Ediciones Unión","city":"Havana","country":"Cuba","Pub_Location":"Havana, Cuba","ObjectId":92}},{"type":"Feature","id":93,"geometry":{"type":"Point","coordinates":[-82.0333300002105,22.8499999995982]},"properties":{"Publisher":"Ediciones Unión","city":"Vedado","country":"Cuba","Pub_Location":"Vedado, Cuba","ObjectId":93}},{"type":"Feature","id":94,"geometry":{"type":"Point","coordinates":[-82.3674899998199,23.1321100003351]},"properties":{"Publisher":"Ediciones Unión","city":"Havana","country":"Cuba","Pub_Location":"Havana, Cuba","ObjectId":94}},{"type":"Feature","id":95,"geometry":{"type":"Point","coordinates":[-82.3674899998199,23.1321100003351]},"properties":{"Publisher":"Ediciones Unión","city":"Havana","country":"Cuba","Pub_Location":"Havana, Cuba","ObjectId":95}},{"type":"Feature","id":96,"geometry":{"type":"Point","coordinates":[-82.3674899998199,23.1321100003351]},"properties":{"Publisher":"Ediciones Unión","city":"Havana","country":"Cuba","Pub_Location":"Havana, Cuba","ObjectId":96}},{"type":"Feature","id":97,"geometry":{"type":"Point","coordinates":[-82.3674899998199,23.1321100003351]},"properties":{"Publisher":"Editorial Verbum","city":"Havana","country":"Cuba","Pub_Location":"Havana, Cuba","ObjectId":97}},{"type":"Feature","id":98,"geometry":{"type":"Point","coordinates":[-82.3674899998199,23.1321100003351]},"properties":{"Publisher":"Letras Cubanas","city":"Havana","country":"Cuba","Pub_Location":"Havana, Cuba","ObjectId":98}},{"type":"Feature","id":99,"geometry":{"type":"Point","coordinates":[-58.3734400004338,-34.608490000255]},"properties":{"Publisher":"Ediciones Instituto Movilizador de Fondos Cooperativos C.L","city":"Buenos Aires","country":"Argentina","Pub_Location":"Buenos Aires, Argentina","ObjectId":99}},{"type":"Feature","id":100,"geometry":{"type":"Point","coordinates":[-82.3674899998199,23.1321100003351]},"properties":{"Publisher":"Casa de las Américas","city":"Havana","country":"Cuba","Pub_Location":"Havana, Cuba","ObjectId":100}},{"type":"Feature","id":101,"geometry":{"type":"Point","coordinates":[-58.3734400004338,-34.608490000255]},"properties":{"Publisher":"Editorial Jorge Álvarez","city":"Buenos Aires","country":"Argentina","Pub_Location":"Buenos Aires, Argentina","ObjectId":101}},{"type":"Feature","id":102,"geometry":{"type":"Point","coordinates":[-76.7427600002659,18.0124500001026]},"properties":{"Publisher":"Savacou Cooperative","city":"Mona","country":"Jamaica","Pub_Location":"Mona, Jamaica","ObjectId":102}},{"type":"Feature","id":103,"geometry":{"type":"Point","coordinates":[2.17000999985347,41.3880400003367]},"properties":{"Publisher":"Seix Barral","city":"Barcelona","country":"Spain","Pub_Location":"Barcelona, Spain","ObjectId":103}},{"type":"Feature","id":104,"geometry":{"type":"Point","coordinates":[-43.1750100000495,-22.9121600002569]},"properties":{"Publisher":"Francisco Alves","city":"Rio de Janeiro","country":"Brazil","Pub_Location":"Rio de Janeiro, Brazil","ObjectId":104}},{"type":"Feature","id":105,"geometry":{"type":"Point","coordinates":[-58.3734400004338,-34.608490000255]},"properties":{"Publisher":"Editorial Jorge Álvarez","city":"Buenos Aires","country":"Argentina","Pub_Location":"Buenos Aires, Argentina","ObjectId":105}},{"type":"Feature","id":106,"geometry":{"type":"Point","coordinates":[-1.25762862282567,51.7519826571134]},"properties":{"Publisher":"Clarendon Press","city":"Oxford","country":"England","Pub_Location":"Oxford, England","ObjectId":106}},{"type":"Feature","id":107,"geometry":{"type":"Point","coordinates":[-3.69195999973829,40.4195499997197]},"properties":{"Publisher":"Narrativa Mondadori","city":"Madrid","country":"Spain","Pub_Location":"Madrid, Spain","ObjectId":107}},{"type":"Feature","id":108,"geometry":{"type":"Point","coordinates":[139.691716090204,35.6894563297106]},"properties":{"Publisher":"Kokusho Kankokai","city":"Tokyo","country":"Japan","Pub_Location":"Tokyo, Japan","ObjectId":108}},{"type":"Feature","id":109,"geometry":{"type":"Point","coordinates":[-96.0000000004109,59.9999999999175]},"properties":{"Publisher":"Brenda Alexander-Perez","city":"Scarborough","country":"Canada","Pub_Location":"Scarborough, Canada","ObjectId":109}},{"type":"Feature","id":110,"geometry":{"type":"Point","coordinates":[-76.7427600002659,18.0124500001026]},"properties":{"Publisher":"Savacou Cooperative","city":"Mona","country":"Jamaica","Pub_Location":"Mona, Jamaica","ObjectId":110}},{"type":"Feature","id":111,"geometry":{"type":"Point","coordinates":[-80.1977300002116,25.7748099999689]},"properties":{"Publisher":"Ediciones Universal","city":"Miami, FL","country":"United States","Pub_Location":"Miami, FL, United States","ObjectId":111}},{"type":"Feature","id":112,"geometry":{"type":"Point","coordinates":[-74.0071400003009,40.7145500001758]},"properties":{"Publisher":"Grove Press","city":"New York, NY","country":"United States","Pub_Location":"New York, NY, United States","ObjectId":112}},{"type":"Feature","id":113,"geometry":{"type":"Point","coordinates":[2.34139999961038,48.8571699999716]},"properties":{"Publisher":"HC Éditions","city":"Paris","country":"France","Pub_Location":"Paris, France","ObjectId":113}},{"type":"Feature","id":114,"geometry":{"type":"Point","coordinates":[-0.12769869318213,51.5074083600845]},"properties":{"Publisher":"Oxford University Press","city":"London","country":"England","Pub_Location":"London, England","ObjectId":114}},{"type":"Feature","id":115,"geometry":{"type":"Point","coordinates":[-3.69195999973829,40.4195499997197]},"properties":{"Publisher":"Ediciones Cátedra","city":"Madrid","country":"Spain","Pub_Location":"Madrid, Spain","ObjectId":115}},{"type":"Feature","id":116,"geometry":{"type":"Point","coordinates":[-74.0071400003009,40.7145500001758]},"properties":{"Publisher":"Ultramarine Pub Co","city":"New York, NY","country":"United States","Pub_Location":"New York, NY, United States","ObjectId":116}},{"type":"Feature","id":117,"geometry":{"type":"Point","coordinates":[-69.8913899996937,18.4718500002791]},"properties":{"Publisher":"Impr. de J.R. vda. García, sucesores","city":"Santo Domingo","country":"Dominican Republic","Pub_Location":"Santo Domingo, Dominican Republic","ObjectId":117}},{"type":"Feature","id":118,"geometry":{"type":"Point","coordinates":[-76.7427600002659,18.0124500001026]},"properties":{"Publisher":"Caldwell Press","city":"Mona","country":"Jamaica","Pub_Location":"Mona, Jamaica","ObjectId":118}},{"type":"Feature","id":119,"geometry":{"type":"Point","coordinates":[-80.1977300002116,25.7748099999689]},"properties":{"Publisher":"Ediciones Universal","city":"Miami, FL","country":"United States","Pub_Location":"Miami, FL, United States","ObjectId":119}},{"type":"Feature","id":120,"geometry":{"type":"Point","coordinates":[-80.1977300002116,25.7748099999689]},"properties":{"Publisher":"Solar","city":"Miami, FL","country":"United States","Pub_Location":"Miami, FL, United States","ObjectId":120}},{"type":"Feature","id":121,"geometry":{"type":"Point","coordinates":[-69.8913899996937,18.4718500002791]},"properties":{"Publisher":"Impr. de J.R. vda. García, sucesores","city":"Santo Domingo","country":"Dominican Republic","Pub_Location":"Santo Domingo, Dominican Republic","ObjectId":121}},{"type":"Feature","id":122,"geometry":{"type":"Point","coordinates":[-0.12769869318213,51.5074083600845]},"properties":{"Publisher":"Oxford University Press","city":"London","country":"England","Pub_Location":"London, England","ObjectId":122}},{"type":"Feature","id":123,"geometry":{"type":"Point","coordinates":[-3.69195999973829,40.4195499997197]},"properties":{"Publisher":"Tusquets Editores S.A.","city":"Madrid","country":"Spain","Pub_Location":"Madrid, Spain","ObjectId":123}},{"type":"Feature","id":124,"geometry":{"type":"Point","coordinates":[-74.0071400003009,40.7145500001758]},"properties":{"Publisher":"Regents Publishing Company","city":"New York, NY","country":"United States","Pub_Location":"New York, NY, United States","ObjectId":124}},{"type":"Feature","id":125,"geometry":{"type":"Point","coordinates":[-4.94745466921664,50.3519560191557]},"properties":{"Publisher":"Myriad Editions","city":"Brighton","country":"England","Pub_Location":"Brighton, England","ObjectId":125}},{"type":"Feature","id":126,"geometry":{"type":"Point","coordinates":[-72.6497699995648,41.5626799999218]},"properties":{"Publisher":"Wesleyan University Press","city":"Middletown, CT","country":"United States","Pub_Location":"Middletown, CT, United States","ObjectId":126}},{"type":"Feature","id":127,"geometry":{"type":"Point","coordinates":[-74.0071400003009,40.7145500001758]},"properties":{"Publisher":"The Paris Review","city":"New York, NY","country":"United States","Pub_Location":"New York, NY, United States","ObjectId":127}},{"type":"Feature","id":128,"geometry":{"type":"Point","coordinates":[-63.0458199996013,18.0260000003768]},"properties":{"Publisher":"House of Nehesi","city":"Philipsburg","country":"St. Martin","Pub_Location":"Philipsburg, St. Martin","ObjectId":128}},{"type":"Feature","id":129,"geometry":{"type":"Point","coordinates":[-1.55026794113243,53.8007185979777]},"properties":{"Publisher":"Peepal Tree Press","city":"Leeds","country":"England","Pub_Location":"Leeds, England","ObjectId":129}},{"type":"Feature","id":130,"geometry":{"type":"Point","coordinates":[-1.55026794113243,53.8007185979777]},"properties":{"Publisher":"Peepal Tree Press","city":"Leeds","country":"England","Pub_Location":"Leeds, England","ObjectId":130}},{"type":"Feature","id":131,"geometry":{"type":"Point","coordinates":[-0.12769869318213,51.5074083600845]},"properties":{"Publisher":"New Beacon Books","city":"London","country":"England","Pub_Location":"London, England","ObjectId":131}},{"type":"Feature","id":132,"geometry":{"type":"Point","coordinates":[-59.5833300002912,13.2999999998382]},"properties":{"Publisher":"University of the West Indies Press","city":"Cave Hill","country":"Barbados","Pub_Location":"Cave Hill, Barbados","ObjectId":132}},{"type":"Feature","id":133,"geometry":{"type":"Point","coordinates":[-83.7484699998585,42.2820999997885]},"properties":{"Publisher":"Proquest LLC","city":"Ann Arbor","country":"United States","Pub_Location":"Ann Arbor, United States","ObjectId":133}},{"type":"Feature","id":134,"geometry":{"type":"Point","coordinates":[-0.12769869318213,51.5074083600845]},"properties":{"Publisher":"New Beacon Books","city":"London","country":"England","Pub_Location":"London, England","ObjectId":134}},{"type":"Feature","id":135,"geometry":{"type":"Point","coordinates":[-76.7882700000323,17.970919999744]},"properties":{"Publisher":"Savacou Cooperative","city":"Kingston","country":"Jamaica","Pub_Location":"Kingston, Jamaica","ObjectId":135}},{"type":"Feature","id":136,"geometry":{"type":"Point","coordinates":[-76.6092599995553,39.2905800002388]},"properties":{"Publisher":"Johns Hopkins University Press","city":"Baltimore","country":"United States","Pub_Location":"Baltimore, United States","ObjectId":136}},{"type":"Feature","id":137,"geometry":{"type":"Point","coordinates":[-97.4461000000861,35.2209699999534]},"properties":{"Publisher":"University of Oklahoma","city":"Norman","country":"United States","Pub_Location":"Norman, United States","ObjectId":137}},{"type":"Feature","id":138,"geometry":{"type":"Point","coordinates":[-74.0071400003009,40.7145500001758]},"properties":{"Publisher":"Savacou Cooperative","city":"New York, NY","country":"United States","Pub_Location":"New York, NY, United States","ObjectId":138}},{"type":"Feature","id":139,"geometry":{"type":"Point","coordinates":[-1.55026794113243,53.8007185979777]},"properties":{"Publisher":"Peepal Tree Press","city":"Leeds","country":"England","Pub_Location":"Leeds, England","ObjectId":139}},{"type":"Feature","id":140,"geometry":{"type":"Point","coordinates":[-76.7882700000323,17.970919999744]},"properties":{"Publisher":"Savacou Cooperative","city":"Kingston","country":"Jamaica","Pub_Location":"Kingston, Jamaica","ObjectId":140}},{"type":"Feature","id":141,"geometry":{"type":"Point","coordinates":[-63.0458199996013,18.0260000003768]},"properties":{"Publisher":"House of Nehesi","city":"Philipsburg","country":"St. Martin","Pub_Location":"Philipsburg, St. Martin","ObjectId":141}},{"type":"Feature","id":142,"geometry":{"type":"Point","coordinates":[-81.4404100000411,41.2432900000498]},"properties":{"Publisher":"Bard College","city":"Hudson","country":"United States","Pub_Location":"Hudson, United States","ObjectId":142}},{"type":"Feature","id":143,"geometry":{"type":"Point","coordinates":[-81.4404100000411,41.2432900000498]},"properties":{"Publisher":"Bard College","city":"Hudson","country":"United States","Pub_Location":"Hudson, United States","ObjectId":143}},{"type":"Feature","id":144,"geometry":{"type":"Point","coordinates":[-74.0071400003009,40.7145500001758]},"properties":{"Publisher":"Savacou Cooperative","city":"New York, NY","country":"United States","Pub_Location":"New York, NY, United States","ObjectId":144}},{"type":"Feature","id":145,"geometry":{"type":"Point","coordinates":[-76.7427600002659,18.0124500001026]},"properties":{"Publisher":"Savacou Cooperative","city":"Mona","country":"Jamaica","Pub_Location":"Mona, Jamaica","ObjectId":145}},{"type":"Feature","id":146,"geometry":{"type":"Point","coordinates":[-76.7427600002659,18.0124500001026]},"properties":{"Publisher":"Savacou Cooperative","city":"Mona","country":"Jamaica","Pub_Location":"Mona, Jamaica","ObjectId":146}},{"type":"Feature","id":147,"geometry":{"type":"Point","coordinates":[8.80453000023267,53.0753700000204]},"properties":{"Publisher":"Uebersee-Museum","city":"Bremen","country":"Germany","Pub_Location":"Bremen, Germany","ObjectId":147}},{"type":"Feature","id":148,"geometry":{"type":"Point","coordinates":[-76.7427600002659,18.0124500001026]},"properties":{"Publisher":"Savacou Cooperative","city":"Mona","country":"Jamaica","Pub_Location":"Mona, Jamaica","ObjectId":148}},{"type":"Feature","id":149,"geometry":{"type":"Point","coordinates":[-1.25762862282567,51.7519826571134]},"properties":{"Publisher":"Oxford University Press","city":"Oxford","country":"England","Pub_Location":"Oxford, England","ObjectId":149}},{"type":"Feature","id":150,"geometry":{"type":"Point","coordinates":[0.0957355600897646,51.7687983250265]},"properties":{"Publisher":"Longman Inc.","city":"Harlow","country":"England","Pub_Location":"Harlow, England","ObjectId":150}},{"type":"Feature","id":151,"geometry":{"type":"Point","coordinates":[-0.12769869318213,51.5074083600845]},"properties":{"Publisher":"Evans Brothers","city":"London","country":"England","Pub_Location":"London, England","ObjectId":151}},{"type":"Feature","id":152,"geometry":{"type":"Point","coordinates":[-1.25762862282567,51.7519826571134]},"properties":{"Publisher":"Oxford University Press","city":"Oxford","country":"England","Pub_Location":"Oxford, England","ObjectId":152}},{"type":"Feature","id":153,"geometry":{"type":"Point","coordinates":[-76.7427600002659,18.0124500001026]},"properties":{"Publisher":"Savacou Cooperative","city":"Mona","country":"Jamaica","Pub_Location":"Mona, Jamaica","ObjectId":153}},{"type":"Feature","id":154,"geometry":{"type":"Point","coordinates":[-0.12769869318213,51.5074083600845]},"properties":{"Publisher":"Evans Brothers","city":"London","country":"England","Pub_Location":"London, England","ObjectId":154}},{"type":"Feature","id":155,"geometry":{"type":"Point","coordinates":[-76.7882700000323,17.970919999744]},"properties":{"Publisher":"Savacou Cooperative","city":"Kingston","country":"Jamaica","Pub_Location":"Kingston, Jamaica","ObjectId":155}},{"type":"Feature","id":156,"geometry":{"type":"Point","coordinates":[-0.12769869318213,51.5074083600845]},"properties":{"Publisher":"Oxford University Press","city":"London","country":"England","Pub_Location":"London, England","ObjectId":156}},{"type":"Feature","id":157,"geometry":{"type":"Point","coordinates":[-0.12769869318213,51.5074083600845]},"properties":{"Publisher":"Oxford University Press","city":"London","country":"England","Pub_Location":"London, England","ObjectId":157}},{"type":"Feature","id":158,"geometry":{"type":"Point","coordinates":[-0.12769869318213,51.5074083600845]},"properties":{"Publisher":"Oxford University Press","city":"London","country":"England","Pub_Location":"London, England","ObjectId":158}},{"type":"Feature","id":159,"geometry":{"type":"Point","coordinates":[-83.7484699998585,42.2820999997885]},"properties":{"Publisher":"Bell & Howell Information and Learning Company","city":"Ann Arbor, MI","country":"United States","Pub_Location":"Ann Arbor, MI, United States","ObjectId":159}},{"type":"Feature","id":160,"geometry":{"type":"Point","coordinates":[-3.69195999973829,40.4195499997197]},"properties":{"Publisher":"Editora Betânia","city":"Madrid","country":"Spain","Pub_Location":"Madrid, Spain","ObjectId":160}},{"type":"Feature","id":161,"geometry":{"type":"Point","coordinates":[-73.9903599999012,40.692450000328]},"properties":{"Publisher":"Akashic Books","city":"Brooklyn, NY","country":"United States","Pub_Location":"Brooklyn, NY, United States","ObjectId":161}},{"type":"Feature","id":162,"geometry":{"type":"Point","coordinates":[-80.1977300002116,25.7748099999689]},"properties":{"Publisher":"Mariel Press","city":"Miami, FL","country":"United States","Pub_Location":"Miami, FL, United States","ObjectId":162}},{"type":"Feature","id":163,"geometry":{"type":"Point","coordinates":[-77.0319599999298,38.8903699998457]},"properties":{"Publisher":"Three Continents","city":"Washington","country":"United States","Pub_Location":"Washington, United States","ObjectId":163}},{"type":"Feature","id":164,"geometry":{"type":"Point","coordinates":[-4.41965000013932,36.7184700002344]},"properties":{"Publisher":"Dador Ediciones","city":"Málaga","country":"Spain","Pub_Location":"Málaga, Spain","ObjectId":164}},{"type":"Feature","id":165,"geometry":{"type":"Point","coordinates":[-0.12769869318213,51.5074083600845]},"properties":{"Publisher":"Virago Press","city":"London","country":"England","Pub_Location":"London, England","ObjectId":165}},{"type":"Feature","id":166,"geometry":{"type":"Point","coordinates":[-74.0071400003009,40.7145500001758]},"properties":{"Publisher":"Versify","city":"New York, NY","country":"United States","Pub_Location":"New York, NY, United States","ObjectId":166}},{"type":"Feature","id":167,"geometry":{"type":"Point","coordinates":[14.4330199999179,50.0791299998901]},"properties":{"Publisher":"Svoboda","city":"Praha","country":"Czech Republic","Pub_Location":"Praha, Czech Republic","ObjectId":167}},{"type":"Feature","id":168,"geometry":{"type":"Point","coordinates":[-1.55026794113243,53.8007185979777]},"properties":{"Publisher":"Peepal Tree Press","city":"Leeds","country":"England","Pub_Location":"Leeds, England","ObjectId":168}},{"type":"Feature","id":169,"geometry":{"type":"Point","coordinates":[-61.3500000002934,15.3166700001674]},"properties":{"Publisher":"Papillote Press","city":"Trafalgar","country":"Dominica","Pub_Location":"Trafalgar, Dominica","ObjectId":169}},{"type":"Feature","id":170,"geometry":{"type":"Point","coordinates":[-1.55026794113243,53.8007185979777]},"properties":{"Publisher":"Peepal Tree Press","city":"Leeds","country":"England","Pub_Location":"Leeds, England","ObjectId":170}},{"type":"Feature","id":171,"geometry":{"type":"Point","coordinates":[-61.3500000002934,15.3166700001674]},"properties":{"Publisher":"Papillote Press","city":"Trafalgar","country":"Dominica","Pub_Location":"Trafalgar, Dominica","ObjectId":171}},{"type":"Feature","id":172,"geometry":{"type":"Point","coordinates":[-1.55026794113243,53.8007185979777]},"properties":{"Publisher":"Peepal Tree Press","city":"Leeds","country":"England","Pub_Location":"Leeds, England","ObjectId":172}},{"type":"Feature","id":173,"geometry":{"type":"Point","coordinates":[-0.12769869318213,51.5074083600845]},"properties":{"Publisher":"Virago Press","city":"London","country":"England","Pub_Location":"London, England","ObjectId":173}},{"type":"Feature","id":174,"geometry":{"type":"Point","coordinates":[-61.3500000002934,15.3166700001674]},"properties":{"Publisher":"Papillote Press","city":"Trafalgar","country":"Dominica","Pub_Location":"Trafalgar, Dominica","ObjectId":174}},{"type":"Feature","id":175,"geometry":{"type":"Point","coordinates":[-72.3349999997175,18.5391700003826]},"properties":{"Publisher":"Edisyon Près Nasyonal d'Ayiti","city":"Port-au-Prince","country":"Haiti","Pub_Location":"Port-au-Prince, Haiti","ObjectId":175}},{"type":"Feature","id":176,"geometry":{"type":"Point","coordinates":[-72.3349999997175,18.5391700003826]},"properties":{"Publisher":"Mémoire D'Encrier","city":"Port-au-Prince","country":"Haiti","Pub_Location":"Port-au-Prince, Haiti","ObjectId":176}},{"type":"Feature","id":177,"geometry":{"type":"Point","coordinates":[-72.3349999997175,18.5391700003826]},"properties":{"Publisher":"Bon Signe","city":"Port-au-Prince","country":"Haiti","Pub_Location":"Port-au-Prince, Haiti","ObjectId":177}},{"type":"Feature","id":178,"geometry":{"type":"Point","coordinates":[-72.3349999997175,18.5391700003826]},"properties":{"Publisher":"Editions Bon Signe","city":"Port-au-Prince","country":"Haiti","Pub_Location":"Port-au-Prince, Haiti","ObjectId":178}},{"type":"Feature","id":179,"geometry":{"type":"Point","coordinates":[-80.1254400001168,26.2314600003481]},"properties":{"Publisher":"Educa Vision","city":"Pompano Beach","country":"United States","Pub_Location":"Pompano Beach, United States","ObjectId":179}},{"type":"Feature","id":180,"geometry":{"type":"Point","coordinates":[-79.0567700003508,35.9148900002938]},"properties":{"Publisher":"Algonquin Books","city":"Chapel Hill","country":"United States","Pub_Location":"Chapel Hill, United States","ObjectId":180}},{"type":"Feature","id":181,"geometry":{"type":"Point","coordinates":[-74.0071400003009,40.7145500001758]},"properties":{"Publisher":"Plume","city":"New York, NY","country":"United States","Pub_Location":"New York, NY, United States","ObjectId":181}},{"type":"Feature","id":182,"geometry":{"type":"Point","coordinates":[-79.2570700002979,35.3267100000661]},"properties":{"Publisher":"Crane's Creek Press","city":"Cameron, NC","country":"United States","Pub_Location":"Cameron, NC, United States","ObjectId":182}},{"type":"Feature","id":183,"geometry":{"type":"Point","coordinates":[-3.69195999973829,40.4195499997197]},"properties":{"Publisher":"El País","city":"Madrid","country":"Spain","Pub_Location":"Madrid, Spain","ObjectId":183}},{"type":"Feature","id":184,"geometry":{"type":"Point","coordinates":[-74.4438400000366,40.4947699996887]},"properties":{"Publisher":"Rutgers University Press","city":"New Brunswick, NJ","country":"United States","Pub_Location":"New Brunswick, NJ, United States","ObjectId":184}},{"type":"Feature","id":185,"geometry":{"type":"Point","coordinates":[-86.53480000002,39.1666000000031]},"properties":{"Publisher":"Xlibris","city":"Bloomington, IN","country":"United States","Pub_Location":"Bloomington, IN, United States","ObjectId":185}},{"type":"Feature","id":186,"geometry":{"type":"Point","coordinates":[-59.6126899998449,13.1120000000151]},"properties":{"Publisher":"NA","city":"Bridgetown","country":"Barbados","Pub_Location":"Bridgetown, Barbados","ObjectId":186}},{"type":"Feature","id":187,"geometry":{"type":"Point","coordinates":[-59.6126899998449,13.1120000000151]},"properties":{"Publisher":"We Culture Publications","city":"Bridgetown","country":"Barbados","Pub_Location":"Bridgetown, Barbados","ObjectId":187}},{"type":"Feature","id":188,"geometry":{"type":"Point","coordinates":[-59.6114200003237,13.105319999768]},"properties":{"Publisher":"WOW Caribbean","city":"St. Michael","country":"Barbados","Pub_Location":"St. Michael, Barbados","ObjectId":188}},{"type":"Feature","id":189,"geometry":{"type":"Point","coordinates":[-1.55026794113243,53.8007185979777]},"properties":{"Publisher":"Peepal Tree Press","city":"Leeds","country":"England","Pub_Location":"Leeds, England","ObjectId":189}},{"type":"Feature","id":190,"geometry":{"type":"Point","coordinates":[-83.035224999956,42.3174380002724]},"properties":{"Publisher":"Black Moss press","city":"Windsor","country":"Canada","Pub_Location":"Windsor, Canada","ObjectId":190}},{"type":"Feature","id":191,"geometry":{"type":"Point","coordinates":[-4.23686994738301,55.8636250397893]},"properties":{"Publisher":"Richard Griffin & Company","city":"Glasgow","country":"Scotland","Pub_Location":"Glasgow, Scotland","ObjectId":191}},{"type":"Feature","id":192,"geometry":{"type":"Point","coordinates":[-73.9082299997112,42.0133300000489]},"properties":{"Publisher":"Bard College","city":"Annandale-on-Hudson","country":"United States","Pub_Location":"Annandale-on-Hudson, United States","ObjectId":192}},{"type":"Feature","id":193,"geometry":{"type":"Point","coordinates":[-3.46249991221924,50.6802850450846]},"properties":{"Publisher":"Stockwell","city":"North Devon","country":"England","Pub_Location":"North Devon, England","ObjectId":193}},{"type":"Feature","id":194,"geometry":{"type":"Point","coordinates":[-74.0071400003009,40.7145500001758]},"properties":{"Publisher":"Macmillan Publishers","city":"New York, NY","country":"United States","Pub_Location":"New York, NY, United States","ObjectId":194}},{"type":"Feature","id":195,"geometry":{"type":"Point","coordinates":[-1.25762862282567,51.7519826571134]},"properties":{"Publisher":"Heinemann","city":"Oxford","country":"England","Pub_Location":"Oxford, England","ObjectId":195}},{"type":"Feature","id":196,"geometry":{"type":"Point","coordinates":[-1.25762862282567,51.7519826571134]},"properties":{"Publisher":"Heinemann","city":"Oxford","country":"England","Pub_Location":"Oxford, England","ObjectId":196}},{"type":"Feature","id":197,"geometry":{"type":"Point","coordinates":[-76.7882700000323,17.970919999744]},"properties":{"Publisher":"Ian Randle Publishers","city":"Kingston","country":"Jamaica","Pub_Location":"Kingston, Jamaica","ObjectId":197}},{"type":"Feature","id":198,"geometry":{"type":"Point","coordinates":[-0.12769869318213,51.5074083600845]},"properties":{"Publisher":"Evans Brothers","city":"London","country":"England","Pub_Location":"London, England","ObjectId":198}},{"type":"Feature","id":199,"geometry":{"type":"Point","coordinates":[2.17000999985347,41.3880400003367]},"properties":{"Publisher":"Tusquets Editores S.A.","city":"Barcelona","country":"Spain","Pub_Location":"Barcelona, Spain","ObjectId":199}},{"type":"Feature","id":200,"geometry":{"type":"Point","coordinates":[-1.55026794113243,53.8007185979777]},"properties":{"Publisher":"Peepal Tree Press","city":"Leeds","country":"England","Pub_Location":"Leeds, England","ObjectId":200}},{"type":"Feature","id":201,"geometry":{"type":"Point","coordinates":[-83.7484699998585,42.2820999997885]},"properties":{"Publisher":"University of Michigan Press","city":"Ann Arbor, MI","country":"United States","Pub_Location":"Ann Arbor, MI, United States","ObjectId":201}},{"type":"Feature","id":202,"geometry":{"type":"Point","coordinates":[-76.7882700000323,17.970919999744]},"properties":{"Publisher":"Ian Randle Publishers","city":"Kingston","country":"Jamaica","Pub_Location":"Kingston, Jamaica","ObjectId":202}},{"type":"Feature","id":203,"geometry":{"type":"Point","coordinates":[-80.1977300002116,25.7748099999689]},"properties":{"Publisher":"Ediciones Universal","city":"Miami, FL","country":"United States","Pub_Location":"Miami, FL, United States","ObjectId":203}},{"type":"Feature","id":204,"geometry":{"type":"Point","coordinates":[-1.55026794113243,53.8007185979777]},"properties":{"Publisher":"Peepal Tree Press","city":"Leeds","country":"England","Pub_Location":"Leeds, England","ObjectId":204}},{"type":"Feature","id":205,"geometry":{"type":"Point","coordinates":[-0.12769869318213,51.5074083600845]},"properties":{"Publisher":"New Beacon Books","city":"London","country":"England","Pub_Location":"London, England","ObjectId":205}},{"type":"Feature","id":206,"geometry":{"type":"Point","coordinates":[-61.5165699995619,10.6661700003632]},"properties":{"Publisher":"Heinemann","city":"Port of Spain","country":"Trinidad & Tobago","Pub_Location":"Port of Spain, Trinidad & Tobago","ObjectId":206}},{"type":"Feature","id":207,"geometry":{"type":"Point","coordinates":[-80.1977300002116,25.7748099999689]},"properties":{"Publisher":"Editorial Hypermedia Inc.","city":"Miami, FL","country":"United States","Pub_Location":"Miami, FL, United States","ObjectId":207}},{"type":"Feature","id":208,"geometry":{"type":"Point","coordinates":[-74.0071400003009,40.7145500001758]},"properties":{"Publisher":"Ballantine Books","city":"New York, NY","country":"United States","Pub_Location":"New York, NY, United States","ObjectId":208}},{"type":"Feature","id":209,"geometry":{"type":"Point","coordinates":[-0.12769869318213,51.5074083600845]},"properties":{"Publisher":"Evans brothers","city":"London","country":"England","Pub_Location":"London, England","ObjectId":209}},{"type":"Feature","id":210,"geometry":{"type":"Point","coordinates":[-0.12769869318213,51.5074083600845]},"properties":{"Publisher":"Heinemann","city":"London","country":"England","Pub_Location":"London, England","ObjectId":210}},{"type":"Feature","id":211,"geometry":{"type":"Point","coordinates":[2.17000999985347,41.3880400003367]},"properties":{"Publisher":"Tusquets Editores S.A.","city":"Barcelona","country":"Spain","Pub_Location":"Barcelona, Spain","ObjectId":211}},{"type":"Feature","id":212,"geometry":{"type":"Point","coordinates":[-74.0071400003009,40.7145500001758]},"properties":{"Publisher":"Delacorte Press","city":"New York, NY","country":"United States","Pub_Location":"New York, NY, United States","ObjectId":212}},{"type":"Feature","id":213,"geometry":{"type":"Point","coordinates":[-1.25762862282567,51.7519826571134]},"properties":{"Publisher":"Oxford University Press","city":"Oxford","country":"England","Pub_Location":"Oxford, England","ObjectId":213}},{"type":"Feature","id":214,"geometry":{"type":"Point","coordinates":[-0.12769869318213,51.5074083600845]},"properties":{"Publisher":"Heinemann","city":"London","country":"England","Pub_Location":"London, England","ObjectId":214}},{"type":"Feature","id":215,"geometry":{"type":"Point","coordinates":[-80.1977300002116,25.7748099999689]},"properties":{"Publisher":"Ediciones Universal","city":"Miami, FL","country":"United States","Pub_Location":"Miami, FL, United States","ObjectId":215}},{"type":"Feature","id":216,"geometry":{"type":"Point","coordinates":[-73.9903599999012,40.692450000328]},"properties":{"Publisher":"Caribbean Diaspora Press","city":"Brooklyn, NY","country":"United States","Pub_Location":"Brooklyn, NY, United States","ObjectId":216}},{"type":"Feature","id":217,"geometry":{"type":"Point","coordinates":[-0.12769869318213,51.5074083600845]},"properties":{"Publisher":"New Beacon Books","city":"London","country":"England","Pub_Location":"London, England","ObjectId":217}},{"type":"Feature","id":218,"geometry":{"type":"Point","coordinates":[-72.3349999997175,18.5391700003826]},"properties":{"Publisher":"Impr. H. Deschamps","city":"Port-au- Prince","country":"Haiti","Pub_Location":"Port-au- Prince, Haiti","ObjectId":218}},{"type":"Feature","id":219,"geometry":{"type":"Point","coordinates":[-80.1977300002116,25.7748099999689]},"properties":{"Publisher":"Ediciones Universal","city":"Miami, FL","country":"United States","Pub_Location":"Miami, FL, United States","ObjectId":219}},{"type":"Feature","id":220,"geometry":{"type":"Point","coordinates":[-60.989630000268,14.0117700002799]},"properties":{"Publisher":"Aubertin, Michael","city":"Castries","country":"St. Lucia","Pub_Location":"Castries, St. Lucia","ObjectId":220}},{"type":"Feature","id":221,"geometry":{"type":"Point","coordinates":[-1.25762862282567,51.7519826571134]},"properties":{"Publisher":"Oxford University Press","city":"Oxford","country":"England","Pub_Location":"Oxford, England","ObjectId":221}},{"type":"Feature","id":222,"geometry":{"type":"Point","coordinates":[-74.1183000003316,42.0425800001]},"properties":{"Publisher":"The Overlook Press","city":"Woodstock, NY","country":"United States","Pub_Location":"Woodstock, NY, United States","ObjectId":222}},{"type":"Feature","id":223,"geometry":{"type":"Point","coordinates":[-74.1183000003316,42.0425800001]},"properties":{"Publisher":"The Overlook Press","city":"Woodstock, NY","country":"United States","Pub_Location":"Woodstock, NY, United States","ObjectId":223}},{"type":"Feature","id":224,"geometry":{"type":"Point","coordinates":[-73.9903599999012,40.692450000328]},"properties":{"Publisher":"Akashic Books","city":"Brooklyn, NY","country":"United States","Pub_Location":"Brooklyn, NY, United States","ObjectId":224}},{"type":"Feature","id":225,"geometry":{"type":"Point","coordinates":[2.17000999985347,41.3880400003367]},"properties":{"Publisher":"Editorial Anagrama","city":"Barcelona","country":"Spain","Pub_Location":"Barcelona, Spain","ObjectId":225}},{"type":"Feature","id":226,"geometry":{"type":"Point","coordinates":[-73.9903599999012,40.692450000328]},"properties":{"Publisher":"Akashic Books","city":"Brooklyn, NY","country":"United States","Pub_Location":"Brooklyn, NY, United States","ObjectId":226}},{"type":"Feature","id":227,"geometry":{"type":"Point","coordinates":[-0.12769869318213,51.5074083600845]},"properties":{"Publisher":"Macmillan Publishers","city":"London","country":"England","Pub_Location":"London, England","ObjectId":227}},{"type":"Feature","id":228,"geometry":{"type":"Point","coordinates":[2.34139999961038,48.8571699999716]},"properties":{"Publisher":"UNESCO","city":"Paris","country":"France","Pub_Location":"Paris, France","ObjectId":228}},{"type":"Feature","id":229,"geometry":{"type":"Point","coordinates":[-74.0071400003009,40.7145500001758]},"properties":{"Publisher":"InsightOut Books","city":"New York, NY","country":"United States","Pub_Location":"New York, NY, United States","ObjectId":229}},{"type":"Feature","id":230,"geometry":{"type":"Point","coordinates":[139.691716090204,35.6894563297106]},"properties":{"Publisher":"Tusquets Editores S.A.","city":"Tokyo","country":"Japan","Pub_Location":"Tokyo, Japan","ObjectId":230}},{"type":"Feature","id":231,"geometry":{"type":"Point","coordinates":[2.17000999985347,41.3880400003367]},"properties":{"Publisher":"Tusquets Editores S.A.","city":"Barcelona","country":"Spain","Pub_Location":"Barcelona, Spain","ObjectId":231}},{"type":"Feature","id":232,"geometry":{"type":"Point","coordinates":[-74.0071400003009,40.7145500001758]},"properties":{"Publisher":"Viking Press","city":"New York, NY","country":"United States","Pub_Location":"New York, NY, United States","ObjectId":232}},{"type":"Feature","id":233,"geometry":{"type":"Point","coordinates":[-74.0071400003009,40.7145500001758]},"properties":{"Publisher":"Viking Press","city":"New York, NY","country":"United States","Pub_Location":"New York, NY, United States","ObjectId":233}},{"type":"Feature","id":234,"geometry":{"type":"Point","coordinates":[-74.0071400003009,40.7145500001758]},"properties":{"Publisher":"Grove Press","city":"New York, NY","country":"United States","Pub_Location":"New York, NY, United States","ObjectId":234}},{"type":"Feature","id":235,"geometry":{"type":"Point","coordinates":[-74.0071400003009,40.7145500001758]},"properties":{"Publisher":"Avon Books","city":"New York, NY","country":"United States","Pub_Location":"New York, NY, United States","ObjectId":235}},{"type":"Feature","id":236,"geometry":{"type":"Point","coordinates":[-74.0071400003009,40.7145500001758]},"properties":{"Publisher":"Avon Books","city":"New York, NY","country":"United States","Pub_Location":"New York, NY, United States","ObjectId":236}},{"type":"Feature","id":237,"geometry":{"type":"Point","coordinates":[-74.0071400003009,40.7145500001758]},"properties":{"Publisher":"Viking Press","city":"New York, NY","country":"United States","Pub_Location":"New York, NY, United States","ObjectId":237}},{"type":"Feature","id":238,"geometry":{"type":"Point","coordinates":[-80.1977300002116,25.7748099999689]},"properties":{"Publisher":"Ediciones Universal","city":"Miami, FL","country":"United States","Pub_Location":"Miami, FL, United States","ObjectId":238}},{"type":"Feature","id":239,"geometry":{"type":"Point","coordinates":[0.680500000136338,51.5475499997583]},"properties":{"Publisher":"Penguin Books","city":"Westminster","country":"England","Pub_Location":"Westminster, England","ObjectId":239}},{"type":"Feature","id":240,"geometry":{"type":"Point","coordinates":[-74.0071400003009,40.7145500001758]},"properties":{"Publisher":"Grove Press","city":"New York, NY","country":"United States","Pub_Location":"New York, NY, United States","ObjectId":240}},{"type":"Feature","id":241,"geometry":{"type":"Point","coordinates":[-74.0071400003009,40.7145500001758]},"properties":{"Publisher":"Grove Press","city":"New York, NY","country":"United States","Pub_Location":"New York, NY, United States","ObjectId":241}},{"type":"Feature","id":242,"geometry":{"type":"Point","coordinates":[-74.0071400003009,40.7145500001758]},"properties":{"Publisher":"Grove Press","city":"New York, NY","country":"United States","Pub_Location":"New York, NY, United States","ObjectId":242}},{"type":"Feature","id":243,"geometry":{"type":"Point","coordinates":[-74.0071400003009,40.7145500001758]},"properties":{"Publisher":"Viking Press","city":"New York, NY","country":"United States","Pub_Location":"New York, NY, United States","ObjectId":243}},{"type":"Feature","id":244,"geometry":{"type":"Point","coordinates":[-80.1977300002116,25.7748099999689]},"properties":{"Publisher":"Ediciones Universal","city":"Miami, FL","country":"United States","Pub_Location":"Miami, FL, United States","ObjectId":244}},{"type":"Feature","id":245,"geometry":{"type":"Point","coordinates":[-74.0071400003009,40.7145500001758]},"properties":{"Publisher":"Vintage Books","city":"New York, NY","country":"United States","Pub_Location":"New York, NY, United States","ObjectId":245}},{"type":"Feature","id":246,"geometry":{"type":"Point","coordinates":[-74.0071400003009,40.7145500001758]},"properties":{"Publisher":"Vintage Books","city":"New York, NY","country":"United States","Pub_Location":"New York, NY, United States","ObjectId":246}},{"type":"Feature","id":247,"geometry":{"type":"Point","coordinates":[-74.0071400003009,40.7145500001758]},"properties":{"Publisher":"Avon Books","city":"New York, NY","country":"United States","Pub_Location":"New York, NY, United States","ObjectId":247}},{"type":"Feature","id":248,"geometry":{"type":"Point","coordinates":[-74.0071400003009,40.7145500001758]},"properties":{"Publisher":"Viking Adult","city":"New York, NY","country":"United States","Pub_Location":"New York, NY, United States","ObjectId":248}},{"type":"Feature","id":249,"geometry":{"type":"Point","coordinates":[-74.0071400003009,40.7145500001758]},"properties":{"Publisher":"Viking Press","city":"New York, NY","country":"United States","Pub_Location":"New York, NY, United States","ObjectId":249}},{"type":"Feature","id":250,"geometry":{"type":"Point","coordinates":[-74.0071400003009,40.7145500001758]},"properties":{"Publisher":"Viking Press","city":"New York, NY","country":"United States","Pub_Location":"New York, NY, United States","ObjectId":250}},{"type":"Feature","id":251,"geometry":{"type":"Point","coordinates":[0.680500000136338,51.5475499997583]},"properties":{"Publisher":"Penguin Books","city":"Westminster","country":"England","Pub_Location":"Westminster, England","ObjectId":251}},{"type":"Feature","id":252,"geometry":{"type":"Point","coordinates":[-0.12769869318213,51.5074083600845]},"properties":{"Publisher":"Cape Publishing, Inc.","city":"London","country":"England","Pub_Location":"London, England","ObjectId":252}},{"type":"Feature","id":253,"geometry":{"type":"Point","coordinates":[2.34139999961038,48.8571699999716]},"properties":{"Publisher":"Éditions du Seuil","city":"Paris","country":"France","Pub_Location":"Paris, France","ObjectId":253}},{"type":"Feature","id":254,"geometry":{"type":"Point","coordinates":[2.34139999961038,48.8571699999716]},"properties":{"Publisher":"Presses de la Renaissance","city":"Paris","country":"France","Pub_Location":"Paris, France","ObjectId":254}},{"type":"Feature","id":255,"geometry":{"type":"Point","coordinates":[2.34139999961038,48.8571699999716]},"properties":{"Publisher":"Éditions du Seuil","city":"Paris","country":"France","Pub_Location":"Paris, France","ObjectId":255}},{"type":"Feature","id":256,"geometry":{"type":"Point","coordinates":[2.34139999961038,48.8571699999716]},"properties":{"Publisher":"Éditions du Seuil","city":"Paris","country":"France","Pub_Location":"Paris, France","ObjectId":256}},{"type":"Feature","id":257,"geometry":{"type":"Point","coordinates":[2.34139999961038,48.8571699999716]},"properties":{"Publisher":"Éditions du Seuil","city":"Paris","country":"France","Pub_Location":"Paris, France","ObjectId":257}},{"type":"Feature","id":258,"geometry":{"type":"Point","coordinates":[2.34139999961038,48.8571699999716]},"properties":{"Publisher":"Presses de la Renaissance","city":"Paris","country":"France","Pub_Location":"Paris, France","ObjectId":258}},{"type":"Feature","id":259,"geometry":{"type":"Point","coordinates":[13.3769100001127,52.5160400001679]},"properties":{"Publisher":"Suhrkamp Verlag","city":"Berlin","country":"Germany","Pub_Location":"Berlin, Germany","ObjectId":259}},{"type":"Feature","id":260,"geometry":{"type":"Point","coordinates":[13.3769100001127,52.5160400001679]},"properties":{"Publisher":"Suhrkamp Verlag","city":"Berlin","country":"Germany","Pub_Location":"Berlin, Germany","ObjectId":260}},{"type":"Feature","id":261,"geometry":{"type":"Point","coordinates":[-104.855732495906,21.8021315391319]},"properties":{"Publisher":"Exantaz","city":"NA","country":"NA","Pub_Location":"NA, NA","ObjectId":261}},{"type":"Feature","id":262,"geometry":{"type":"Point","coordinates":[2.17000999985347,41.3880400003367]},"properties":{"Publisher":"Argos Vergara","city":"Barcelona","country":"Spain","Pub_Location":"Barcelona, Spain","ObjectId":262}},{"type":"Feature","id":263,"geometry":{"type":"Point","coordinates":[-74.0071400003009,40.7145500001758]},"properties":{"Publisher":"Frank Garcia","city":"New York, NY","country":"United States","Pub_Location":"New York, NY, United States","ObjectId":263}},{"type":"Feature","id":264,"geometry":{"type":"Point","coordinates":[-3.69195999973829,40.4195499997197]},"properties":{"Publisher":"Editorial Betania","city":"Madrid","country":"Spain","Pub_Location":"Madrid, Spain","ObjectId":264}},{"type":"Feature","id":265,"geometry":{"type":"Point","coordinates":[2.17000999985347,41.3880400003367]},"properties":{"Publisher":"Argos Vergara","city":"Barcelona","country":"Spain","Pub_Location":"Barcelona, Spain","ObjectId":265}},{"type":"Feature","id":266,"geometry":{"type":"Point","coordinates":[-80.1977300002116,25.7748099999689]},"properties":{"Publisher":"Ediciones Universal","city":"Miami, FL","country":"United States","Pub_Location":"Miami, FL, United States","ObjectId":266}},{"type":"Feature","id":267,"geometry":{"type":"Point","coordinates":[-60.989630000268,14.0117700002799]},"properties":{"Publisher":"Lithographic Press","city":"Castries","country":"St. Lucia","Pub_Location":"Castries, St. Lucia","ObjectId":267}},{"type":"Feature","id":268,"geometry":{"type":"Point","coordinates":[-76.7882700000323,17.970919999744]},"properties":{"Publisher":"Savacou Cooperative","city":"Kingston","country":"Jamaica","Pub_Location":"Kingston, Jamaica","ObjectId":268}},{"type":"Feature","id":269,"geometry":{"type":"Point","coordinates":[-82.3674899998199,23.1321100003351]},"properties":{"Publisher":"Union de Escritores y Artistas de Cuba","city":"Havana","country":"Cuba","Pub_Location":"Havana, Cuba","ObjectId":269}},{"type":"Feature","id":270,"geometry":{"type":"Point","coordinates":[-76.7427600002659,18.0124500001026]},"properties":{"Publisher":"Savacou Cooperative","city":"Mona","country":"Jamaica","Pub_Location":"Mona, Jamaica","ObjectId":270}},{"type":"Feature","id":271,"geometry":{"type":"Point","coordinates":[-80.1977300002116,25.7748099999689]},"properties":{"Publisher":"Ediciones Universal","city":"Miami, FL","country":"United States","Pub_Location":"Miami, FL, United States","ObjectId":271}},{"type":"Feature","id":272,"geometry":{"type":"Point","coordinates":[-73.9903599999012,40.692450000328]},"properties":{"Publisher":"OpenLens","city":"Brooklyn, NY","country":"United States","Pub_Location":"Brooklyn, NY, United States","ObjectId":272}},{"type":"Feature","id":273,"geometry":{"type":"Point","coordinates":[-3.69195999973829,40.4195499997197]},"properties":{"Publisher":"Editora Betânia","city":"Madrid","country":"Spain","Pub_Location":"Madrid, Spain","ObjectId":273}},{"type":"Feature","id":274,"geometry":{"type":"Point","coordinates":[11.0734899999604,49.454340000021]},"properties":{"Publisher":"Geo. Müller","city":"Nürnberg","country":"Germany","Pub_Location":"Nürnberg, Germany","ObjectId":274}},{"type":"Feature","id":275,"geometry":{"type":"Point","coordinates":[-3.69195999973829,40.4195499997197]},"properties":{"Publisher":"Editora Betânia","city":"Madrid","country":"Spain","Pub_Location":"Madrid, Spain","ObjectId":275}},{"type":"Feature","id":276,"geometry":{"type":"Point","coordinates":[151.069409999638,-33.8584799996645]},"properties":{"Publisher":"Generic","city":"Homebush West","country":"Australia","Pub_Location":"Homebush West, Australia","ObjectId":276}},{"type":"Feature","id":277,"geometry":{"type":"Point","coordinates":[-82.3674899998199,23.1321100003351]},"properties":{"Publisher":"Casa de las Américas","city":"Havana","country":"Cuba","Pub_Location":"Havana, Cuba","ObjectId":277}},{"type":"Feature","id":278,"geometry":{"type":"Point","coordinates":[-84.7449299998957,50.9261634351352]},"properties":{"Publisher":"Insomniac Press","city":"Ontario","country":"Canada","Pub_Location":"Ontario, Canada","ObjectId":278}},{"type":"Feature","id":279,"geometry":{"type":"Point","coordinates":[-80.1977300002116,25.7748099999689]},"properties":{"Publisher":"Ediciones Universal","city":"Miami, FL","country":"United States","Pub_Location":"Miami, FL, United States","ObjectId":279}},{"type":"Feature","id":280,"geometry":{"type":"Point","coordinates":[-72.6497699995648,41.5626799999218]},"properties":{"Publisher":"Wesleyan University Press","city":"Middletown, CT","country":"United States","Pub_Location":"Middletown, CT, United States","ObjectId":280}},{"type":"Feature","id":281,"geometry":{"type":"Point","coordinates":[-1.25762862282567,51.7519826571134]},"properties":{"Publisher":"Heinemann","city":"Oxford","country":"England","Pub_Location":"Oxford, England","ObjectId":281}},{"type":"Feature","id":282,"geometry":{"type":"Point","coordinates":[-99.1331499997017,19.4319399995919]},"properties":{"Publisher":"Kosmos","city":"Mexico City","country":"Mexico","Pub_Location":"Mexico City, Mexico","ObjectId":282}},{"type":"Feature","id":283,"geometry":{"type":"Point","coordinates":[4.70719000029475,50.8776299999974]},"properties":{"Publisher":"Leuvense Schrijversaktie","city":"Leuven","country":"Belgium","Pub_Location":"Leuven, Belgium","ObjectId":283}},{"type":"Feature","id":284,"geometry":{"type":"Point","coordinates":[-1.25762862282567,51.7519826571134]},"properties":{"Publisher":"Heinemann","city":"Oxford","country":"England","Pub_Location":"Oxford, England","ObjectId":284}},{"type":"Feature","id":285,"geometry":{"type":"Point","coordinates":[2.17000999985347,41.3880400003367]},"properties":{"Publisher":"Tusquets Editores S.A.","city":"Barcelona","country":"Spain","Pub_Location":"Barcelona, Spain","ObjectId":285}},{"type":"Feature","id":286,"geometry":{"type":"Point","coordinates":[-99.1331499997017,19.4319399995919]},"properties":{"Publisher":"Universidad Nacional Autónoma de México","city":"Mexico City","country":"Mexico","Pub_Location":"Mexico City, Mexico","ObjectId":286}},{"type":"Feature","id":287,"geometry":{"type":"Point","coordinates":[-71.0567399997302,42.3586599998984]},"properties":{"Publisher":"Cengage Learning","city":"Boston, MA","country":"United States","Pub_Location":"Boston, MA, United States","ObjectId":287}},{"type":"Feature","id":288,"geometry":{"type":"Point","coordinates":[-2.21386000011143,47.2743500002447]},"properties":{"Publisher":"Maison des Écrivains Étrangers et des Traducteurs","city":"Saint-Nazaire","country":"France","Pub_Location":"Saint-Nazaire, France","ObjectId":288}},{"type":"Feature","id":289,"geometry":{"type":"Point","coordinates":[-82.3674899998199,23.1321100003351]},"properties":{"Publisher":"Casa de las Américas","city":"Havana","country":"Cuba","Pub_Location":"Havana, Cuba","ObjectId":289}},{"type":"Feature","id":290,"geometry":{"type":"Point","coordinates":[-76.7882700000323,17.970919999744]},"properties":{"Publisher":"Planter's Punch","city":"Kingston","country":"Jamaica","Pub_Location":"Kingston, Jamaica","ObjectId":290}},{"type":"Feature","id":291,"geometry":{"type":"Point","coordinates":[-74.0071400003009,40.7145500001758]},"properties":{"Publisher":"Grove Press","city":"New York, NY","country":"United States","Pub_Location":"New York, NY, United States","ObjectId":291}},{"type":"Feature","id":292,"geometry":{"type":"Point","coordinates":[-3.88561999985482,48.4402800000227]},"properties":{"Publisher":"Éditions Isabelle Sauvage","city":"Plounéour-Ménez","country":"France","Pub_Location":"Plounéour-Ménez, France","ObjectId":292}},{"type":"Feature","id":293,"geometry":{"type":"Point","coordinates":[-0.12769869318213,51.5074083600845]},"properties":{"Publisher":"Longman Inc.","city":"London","country":"England","Pub_Location":"London, England","ObjectId":293}},{"type":"Feature","id":294,"geometry":{"type":"Point","coordinates":[8.65013000003935,49.8726399999088]},"properties":{"Publisher":"Darmstadt Neuwied Luchterhand","city":"Darmstadt","country":"Germany","Pub_Location":"Darmstadt, Germany","ObjectId":294}},{"type":"Feature","id":295,"geometry":{"type":"Point","coordinates":[2.34139999961038,48.8571699999716]},"properties":{"Publisher":"Lindsay Barrett","city":"Paris","country":"France","Pub_Location":"Paris, France","ObjectId":295}},{"type":"Feature","id":296,"geometry":{"type":"Point","coordinates":[-73.5542419997735,45.5088669997995]},"properties":{"Publisher":"Mémoire D'Encrier","city":"Montréal, QC","country":"Canada","Pub_Location":"Montréal, QC, Canada","ObjectId":296}},{"type":"Feature","id":297,"geometry":{"type":"Point","coordinates":[-76.7882700000323,17.970919999744]},"properties":{"Publisher":"Planters' Punch","city":"Kingston","country":"Jamaica","Pub_Location":"Kingston, Jamaica","ObjectId":297}},{"type":"Feature","id":298,"geometry":{"type":"Point","coordinates":[8.68340999955785,50.1120800002715]},"properties":{"Publisher":"Edition día","city":"Frankfurt","country":"Germany","Pub_Location":"Frankfurt, Germany","ObjectId":298}},{"type":"Feature","id":299,"geometry":{"type":"Point","coordinates":[1.29894512604739,52.9312821461888]},"properties":{"Publisher":"Salt Publishing","city":"Cromer","country":"England","Pub_Location":"Cromer, England","ObjectId":299}},{"type":"Feature","id":300,"geometry":{"type":"Point","coordinates":[-3.69195999973829,40.4195499997197]},"properties":{"Publisher":"Editora Betânia","city":"Madrid","country":"Spain","Pub_Location":"Madrid, Spain","ObjectId":300}},{"type":"Feature","id":301,"geometry":{"type":"Point","coordinates":[0.119708760838172,52.2048751458312]},"properties":{"Publisher":"Cambridge University Press","city":"Cambridge","country":"England","Pub_Location":"Cambridge, England","ObjectId":301}},{"type":"Feature","id":302,"geometry":{"type":"Point","coordinates":[-72.6497699995648,41.5626799999218]},"properties":{"Publisher":"Wesleyan University Press","city":"Middletown, CT","country":"United States","Pub_Location":"Middletown, CT, United States","ObjectId":302}},{"type":"Feature","id":303,"geometry":{"type":"Point","coordinates":[-74.0071400003009,40.7145500001758]},"properties":{"Publisher":"Penguin Books","city":"New York, NY","country":"United States","Pub_Location":"New York, NY, United States","ObjectId":303}},{"type":"Feature","id":304,"geometry":{"type":"Point","coordinates":[0.119708760838172,52.2048751458312]},"properties":{"Publisher":"Cambridge University Press","city":"Cambridge","country":"England","Pub_Location":"Cambridge, England","ObjectId":304}},{"type":"Feature","id":305,"geometry":{"type":"Point","coordinates":[-74.0071400003009,40.7145500001758]},"properties":{"Publisher":"House of Nehesi Publishers","city":"New York, NY","country":"United States","Pub_Location":"New York, NY, United States","ObjectId":305}},{"type":"Feature","id":306,"geometry":{"type":"Point","coordinates":[-74.0071400003009,40.7145500001758]},"properties":{"Publisher":"Penguin Books","city":"New York, NY","country":"United States","Pub_Location":"New York, NY, United States","ObjectId":306}},{"type":"Feature","id":307,"geometry":{"type":"Point","coordinates":[-76.7427600002659,18.0124500001026]},"properties":{"Publisher":"University Press of the West Indies","city":"Mona","country":"Jamaica","Pub_Location":"Mona, Jamaica","ObjectId":307}},{"type":"Feature","id":308,"geometry":{"type":"Point","coordinates":[-74.0071400003009,40.7145500001758]},"properties":{"Publisher":"New Directions","city":"New York, NY","country":"United States","Pub_Location":"New York, NY, United States","ObjectId":308}},{"type":"Feature","id":309,"geometry":{"type":"Point","coordinates":[-74.0071400003009,40.7145500001758]},"properties":{"Publisher":"Penguin Books","city":"New York, NY","country":"United States","Pub_Location":"New York, NY, United States","ObjectId":309}},{"type":"Feature","id":310,"geometry":{"type":"Point","coordinates":[-106.649050000122,35.0842299997449]},"properties":{"Publisher":"University of New Mexico Press","city":"Albuquerque","country":"United States","Pub_Location":"Albuquerque, United States","ObjectId":310}},{"type":"Feature","id":311,"geometry":{"type":"Point","coordinates":[-76.7882700000323,17.970919999744]},"properties":{"Publisher":"Ian Randle Publishers","city":"Kingston","country":"Jamaica","Pub_Location":"Kingston, Jamaica","ObjectId":311}},{"type":"Feature","id":312,"geometry":{"type":"Point","coordinates":[-74.0071400003009,40.7145500001758]},"properties":{"Publisher":"Penguin Books","city":"New York, NY","country":"United States","Pub_Location":"New York, NY, United States","ObjectId":312}},{"type":"Feature","id":313,"geometry":{"type":"Point","coordinates":[-0.12769869318213,51.5074083600845]},"properties":{"Publisher":"Sampson Low, Marston & Company Limited","city":"London","country":"England","Pub_Location":"London, England","ObjectId":313}},{"type":"Feature","id":314,"geometry":{"type":"Point","coordinates":[-74.0752700002313,40.642419999851]},"properties":{"Publisher":"We Press","city":"Staten Island","country":"United States","Pub_Location":"Staten Island, United States","ObjectId":314}},{"type":"Feature","id":315,"geometry":{"type":"Point","coordinates":[-74.0071400003009,40.7145500001758]},"properties":{"Publisher":"Penguin Books","city":"New York, NY","country":"United States","Pub_Location":"New York, NY, United States","ObjectId":315}},{"type":"Feature","id":316,"geometry":{"type":"Point","coordinates":[-0.12769869318213,51.5074083600845]},"properties":{"Publisher":"Sampson Low, Marston & Company Limited","city":"London","country":"England","Pub_Location":"London, England","ObjectId":316}},{"type":"Feature","id":317,"geometry":{"type":"Point","coordinates":[-76.7427600002659,18.0124500001026]},"properties":{"Publisher":"Institute of Caribbean Studies","city":"Mona","country":"Jamaica","Pub_Location":"Mona, Jamaica","ObjectId":317}},{"type":"Feature","id":318,"geometry":{"type":"Point","coordinates":[2.34139999961038,48.8571699999716]},"properties":{"Publisher":"Ed du Seuil","city":"Paris","country":"France","Pub_Location":"Paris, France","ObjectId":318}},{"type":"Feature","id":319,"geometry":{"type":"Point","coordinates":[-0.12769869318213,51.5074083600845]},"properties":{"Publisher":"Sampson Low, Marston & Company Limited","city":"London","country":"England","Pub_Location":"London, England","ObjectId":319}},{"type":"Feature","id":320,"geometry":{"type":"Point","coordinates":[-72.5892899995934,42.1012500000277]},"properties":{"Publisher":"21st Century Book","city":"Springfield","country":"United States","Pub_Location":"Springfield, United States","ObjectId":320}},{"type":"Feature","id":321,"geometry":{"type":"Point","coordinates":[2.34139999961038,48.8571699999716]},"properties":{"Publisher":"Presses de la Renaissance","city":"Paris","country":"France","Pub_Location":"Paris, France","ObjectId":321}},{"type":"Feature","id":322,"geometry":{"type":"Point","coordinates":[-0.12769869318213,51.5074083600845]},"properties":{"Publisher":"Race Today Publications","city":"London","country":"England","Pub_Location":"London, England","ObjectId":322}},{"type":"Feature","id":323,"geometry":{"type":"Point","coordinates":[-74.0071400003009,40.7145500001758]},"properties":{"Publisher":"Viking Press","city":"New York, NY","country":"United States","Pub_Location":"New York, NY, United States","ObjectId":323}},{"type":"Feature","id":324,"geometry":{"type":"Point","coordinates":[-76.8623400001845,38.9619100000737]},"properties":{"Publisher":"Rowman and Littlefield","city":"Lanham","country":"United States","Pub_Location":"Lanham, United States","ObjectId":324}},{"type":"Feature","id":325,"geometry":{"type":"Point","coordinates":[-74.0071400003009,40.7145500001758]},"properties":{"Publisher":"Viking Press","city":"New York, NY","country":"United States","Pub_Location":"New York, NY, United States","ObjectId":325}},{"type":"Feature","id":326,"geometry":{"type":"Point","coordinates":[-74.0071400003009,40.7145500001758]},"properties":{"Publisher":"Plume","city":"New York, NY","country":"United States","Pub_Location":"New York, NY, United States","ObjectId":326}},{"type":"Feature","id":327,"geometry":{"type":"Point","coordinates":[-74.0071400003009,40.7145500001758]},"properties":{"Publisher":"Viking Press","city":"New York, NY","country":"United States","Pub_Location":"New York, NY, United States","ObjectId":327}},{"type":"Feature","id":328,"geometry":{"type":"Point","coordinates":[-74.0071400003009,40.7145500001758]},"properties":{"Publisher":"Éditeur Inconnu","city":"New York, NY","country":"United States","Pub_Location":"New York, NY, United States","ObjectId":328}},{"type":"Feature","id":329,"geometry":{"type":"Point","coordinates":[-76.7882700000323,17.970919999744]},"properties":{"Publisher":"Ian Randle Publishers","city":"Kingston","country":"Jamaica","Pub_Location":"Kingston, Jamaica","ObjectId":329}},{"type":"Feature","id":330,"geometry":{"type":"Point","coordinates":[-74.0071400003009,40.7145500001758]},"properties":{"Publisher":"St. Martin's Press","city":"New York, NY","country":"United States","Pub_Location":"New York, NY, United States","ObjectId":330}},{"type":"Feature","id":331,"geometry":{"type":"Point","coordinates":[-0.12769869318213,51.5074083600845]},"properties":{"Publisher":"Hodder and Stoughton","city":"London","country":"England","Pub_Location":"London, England","ObjectId":331}},{"type":"Feature","id":332,"geometry":{"type":"Point","coordinates":[-0.12769869318213,51.5074083600845]},"properties":{"Publisher":"Hodder and Stoughton","city":"London","country":"England","Pub_Location":"London, England","ObjectId":332}},{"type":"Feature","id":333,"geometry":{"type":"Point","coordinates":[0.0957355600897646,51.7687983250265]},"properties":{"Publisher":"Longman Inc.","city":"Harlow","country":"England","Pub_Location":"Harlow, England","ObjectId":333}},{"type":"Feature","id":334,"geometry":{"type":"Point","coordinates":[-1.25762862282567,51.7519826571134]},"properties":{"Publisher":"Oxford University Press","city":"Oxford","country":"England","Pub_Location":"Oxford, England","ObjectId":334}},{"type":"Feature","id":335,"geometry":{"type":"Point","coordinates":[-61.5242399996123,10.6663299997471]},"properties":{"Publisher":"Peekash Press","city":"St. Clair","country":"Trinidad & Tobago","Pub_Location":"St. Clair, Trinidad & Tobago","ObjectId":335}},{"type":"Feature","id":336,"geometry":{"type":"Point","coordinates":[-1.1334542639466,52.6336325079098]},"properties":{"Publisher":"Matador","city":"Leicester","country":"England","Pub_Location":"Leicester, England","ObjectId":336}},{"type":"Feature","id":337,"geometry":{"type":"Point","coordinates":[-72.6497699995648,41.5626799999218]},"properties":{"Publisher":"Callie Browning","city":"Middletown, CT","country":"United States","Pub_Location":"Middletown, CT, United States","ObjectId":337}},{"type":"Feature","id":338,"geometry":{"type":"Point","coordinates":[-73.5542419997735,45.5088669997995]},"properties":{"Publisher":"Las Américas Publishing","city":"Montréal, QC","country":"Canada","Pub_Location":"Montréal, QC, Canada","ObjectId":338}},{"type":"Feature","id":339,"geometry":{"type":"Point","coordinates":[-52.6455599997599,5.16829999991311]},"properties":{"Publisher":"Ibis Rouge","city":"Kourou","country":"French Guiana","Pub_Location":"Kourou, French Guiana","ObjectId":339}},{"type":"Feature","id":340,"geometry":{"type":"Point","coordinates":[-1.25762862282567,51.7519826571134]},"properties":{"Publisher":"Myriad Editions","city":"Oxford","country":"England","Pub_Location":"Oxford, England","ObjectId":340}},{"type":"Feature","id":341,"geometry":{"type":"Point","coordinates":[-56.1629300003749,-34.8741700001366]},"properties":{"Publisher":"Editorial Alfa","city":"Montevideo","country":"Uraguay","Pub_Location":"Montevideo, Uraguay","ObjectId":341}},{"type":"Feature","id":342,"geometry":{"type":"Point","coordinates":[-82.3674899998199,23.1321100003351]},"properties":{"Publisher":"Rambla y Bouzá","city":"Havana","country":"Cuba","Pub_Location":"Havana, Cuba","ObjectId":342}},{"type":"Feature","id":343,"geometry":{"type":"Point","coordinates":[2.34139999961038,48.8571699999716]},"properties":{"Publisher":"Éditions du Seuil","city":"Paris","country":"France","Pub_Location":"Paris, France","ObjectId":343}},{"type":"Feature","id":344,"geometry":{"type":"Point","coordinates":[-0.12769869318213,51.5074083600845]},"properties":{"Publisher":"Faber and Faber","city":"London","country":"England","Pub_Location":"London, England","ObjectId":344}},{"type":"Feature","id":345,"geometry":{"type":"Point","coordinates":[-74.0071400003009,40.7145500001758]},"properties":{"Publisher":"Avon","city":"New York, NY","country":"United States","Pub_Location":"New York, NY, United States","ObjectId":345}},{"type":"Feature","id":346,"geometry":{"type":"Point","coordinates":[-74.0071400003009,40.7145500001758]},"properties":{"Publisher":"Harper & Brothers","city":"New York, NY","country":"United States","Pub_Location":"New York, NY, United States","ObjectId":346}},{"type":"Feature","id":347,"geometry":{"type":"Point","coordinates":[-122.270539999833,37.8698800003121]},"properties":{"Publisher":"Creative Arts Books Co.","city":"Berkeley","country":"United States","Pub_Location":"Berkeley, United States","ObjectId":347}},{"type":"Feature","id":348,"geometry":{"type":"Point","coordinates":[-0.12769869318213,51.5074083600845]},"properties":{"Publisher":"Faber and Faber","city":"London","country":"England","Pub_Location":"London, England","ObjectId":348}},{"type":"Feature","id":349,"geometry":{"type":"Point","coordinates":[-99.1331499997017,19.4319399995919]},"properties":{"Publisher":"Diana Literaria","city":"Mexico City","country":"Mexico","Pub_Location":"Mexico City, Mexico","ObjectId":349}},{"type":"Feature","id":350,"geometry":{"type":"Point","coordinates":[-99.1331499997017,19.4319399995919]},"properties":{"Publisher":"Diana Literaria","city":"Mexico City","country":"Mexico","Pub_Location":"Mexico City, Mexico","ObjectId":350}},{"type":"Feature","id":351,"geometry":{"type":"Point","coordinates":[-60.6592399999374,-32.9678000002382]},"properties":{"Publisher":"Ameghino Editora","city":"Rosario","country":"Argentina","Pub_Location":"Rosario, Argentina","ObjectId":351}},{"type":"Feature","id":352,"geometry":{"type":"Point","coordinates":[-82.3674899998199,23.1321100003351]},"properties":{"Publisher":"Ediciones Unión","city":"Havana","country":"Cuba","Pub_Location":"Havana, Cuba","ObjectId":352}},{"type":"Feature","id":353,"geometry":{"type":"Point","coordinates":[-6.001960000345,37.3878800003226]},"properties":{"Publisher":"Guantanamera","city":"Seville","country":"Spain","Pub_Location":"Seville, Spain","ObjectId":353}},{"type":"Feature","id":354,"geometry":{"type":"Point","coordinates":[-6.001960000345,37.3878800003226]},"properties":{"Publisher":"Guantanamera","city":"Seville","country":"Spain","Pub_Location":"Seville, Spain","ObjectId":354}},{"type":"Feature","id":355,"geometry":{"type":"Point","coordinates":[-99.1331499997017,19.4319399995919]},"properties":{"Publisher":"Oceano De Mexico","city":"Mexico City","country":"Mexico","Pub_Location":"Mexico City, Mexico","ObjectId":355}},{"type":"Feature","id":356,"geometry":{"type":"Point","coordinates":[-74.0694100003755,4.61495999991863]},"properties":{"Publisher":"Ediciones Unión","city":"Bogotá","country":"Columbia","Pub_Location":"Bogotá, Columbia","ObjectId":356}},{"type":"Feature","id":357,"geometry":{"type":"Point","coordinates":[-3.69195999973829,40.4195499997197]},"properties":{"Publisher":"Editorial Verbum","city":"Madrid","country":"Spain","Pub_Location":"Madrid, Spain","ObjectId":357}},{"type":"Feature","id":358,"geometry":{"type":"Point","coordinates":[-6.001960000345,37.3878800003226]},"properties":{"Publisher":"Guantanamera","city":"Seville","country":"Spain","Pub_Location":"Seville, Spain","ObjectId":358}},{"type":"Feature","id":359,"geometry":{"type":"Point","coordinates":[-74.0694100003755,4.61495999991863]},"properties":{"Publisher":"Ediciones Unión","city":"Bogotá","country":"Columbia","Pub_Location":"Bogotá, Columbia","ObjectId":359}},{"type":"Feature","id":360,"geometry":{"type":"Point","coordinates":[-74.0694100003755,4.61495999991863]},"properties":{"Publisher":"Ediciones Unión","city":"Bogotá","country":"Columbia","Pub_Location":"Bogotá, Columbia","ObjectId":360}},{"type":"Feature","id":361,"geometry":{"type":"Point","coordinates":[-0.12769869318213,51.5074083600845]},"properties":{"Publisher":"Hurst and Blackett","city":"London","country":"England","Pub_Location":"London, England","ObjectId":361}},{"type":"Feature","id":362,"geometry":{"type":"Point","coordinates":[-77.043410000203,38.804600000342]},"properties":{"Publisher":"Alexander Street Press","city":"Alexandria, VA","country":"United States","Pub_Location":"Alexandria, VA, United States","ObjectId":362}},{"type":"Feature","id":363,"geometry":{"type":"Point","coordinates":[-77.043410000203,38.804600000342]},"properties":{"Publisher":"Alexander Street Press","city":"Alexandria, VA","country":"United States","Pub_Location":"Alexandria, VA, United States","ObjectId":363}},{"type":"Feature","id":364,"geometry":{"type":"Point","coordinates":[-77.043410000203,38.804600000342]},"properties":{"Publisher":"Alexander Street Press","city":"Alexandria, VA","country":"United States","Pub_Location":"Alexandria, VA, United States","ObjectId":364}},{"type":"Feature","id":365,"geometry":{"type":"Point","coordinates":[-61.2604881373754,10.4726742760458]},"properties":{"Publisher":"Possibilities Unlimited","city":"Sana Cruz","country":"Trinidad & Tobago","Pub_Location":"Sana Cruz, Trinidad & Tobago","ObjectId":365}},{"type":"Feature","id":366,"geometry":{"type":"Point","coordinates":[-74.0071400003009,40.7145500001758]},"properties":{"Publisher":"Scholastic Inc.","city":"New York, NY","country":"United States","Pub_Location":"New York, NY, United States","ObjectId":366}},{"type":"Feature","id":367,"geometry":{"type":"Point","coordinates":[-93.2649400003125,44.9790200002452]},"properties":{"Publisher":"University of Minnesota Press","city":"Minneapolis, MN","country":"United States","Pub_Location":"Minneapolis, MN, United States","ObjectId":367}},{"type":"Feature","id":368,"geometry":{"type":"Point","coordinates":[-74.0071400003009,40.7145500001758]},"properties":{"Publisher":"Grove Press","city":"New York, NY","country":"United States","Pub_Location":"New York, NY, United States","ObjectId":368}},{"type":"Feature","id":369,"geometry":{"type":"Point","coordinates":[-74.0071400003009,40.7145500001758]},"properties":{"Publisher":"Grove Press","city":"New York, NY","country":"United States","Pub_Location":"New York, NY, United States","ObjectId":369}},{"type":"Feature","id":370,"geometry":{"type":"Point","coordinates":[-79.3839069998151,43.6535240000335]},"properties":{"Publisher":"Williams-Wallace","city":"Toronto","country":"Canada","Pub_Location":"Toronto, Canada","ObjectId":370}},{"type":"Feature","id":371,"geometry":{"type":"Point","coordinates":[-79.3839069998151,43.6535240000335]},"properties":{"Publisher":"McClelland & Stewart","city":"Toronto","country":"Canada","Pub_Location":"Toronto, Canada","ObjectId":371}},{"type":"Feature","id":372,"geometry":{"type":"Point","coordinates":[-79.3839069998151,43.6535240000335]},"properties":{"Publisher":"Williams-Wallace","city":"Toronto","country":"Canada","Pub_Location":"Toronto, Canada","ObjectId":372}},{"type":"Feature","id":373,"geometry":{"type":"Point","coordinates":[-79.3839069998151,43.6535240000335]},"properties":{"Publisher":"NA","city":"Toronto","country":"Canada","Pub_Location":"Toronto, Canada","ObjectId":373}},{"type":"Feature","id":374,"geometry":{"type":"Point","coordinates":[-0.12769869318213,51.5074083600845]},"properties":{"Publisher":"Evans Brothers","city":"London","country":"England","Pub_Location":"London, England","ObjectId":374}},{"type":"Feature","id":375,"geometry":{"type":"Point","coordinates":[-76.7882700000323,17.970919999744]},"properties":{"Publisher":"Ian Randle Publishers","city":"Kingston","country":"Jamaica","Pub_Location":"Kingston, Jamaica","ObjectId":375}},{"type":"Feature","id":376,"geometry":{"type":"Point","coordinates":[-74.0071400003009,40.7145500001758]},"properties":{"Publisher":"New Directions","city":"New York, NY","country":"United States","Pub_Location":"New York, NY, United States","ObjectId":376}},{"type":"Feature","id":377,"geometry":{"type":"Point","coordinates":[-76.7882700000323,17.970919999744]},"properties":{"Publisher":"API for the National Heritage Week","city":"Kingston","country":"Jamaica","Pub_Location":"Kingston, Jamaica","ObjectId":377}},{"type":"Feature","id":378,"geometry":{"type":"Point","coordinates":[-0.12769869318213,51.5074083600845]},"properties":{"Publisher":"Evans Brothers","city":"London","country":"England","Pub_Location":"London, England","ObjectId":378}},{"type":"Feature","id":379,"geometry":{"type":"Point","coordinates":[-1.25762862282567,51.7519826571134]},"properties":{"Publisher":"Oxford University Press","city":"Oxford","country":"England","Pub_Location":"Oxford, England","ObjectId":379}},{"type":"Feature","id":380,"geometry":{"type":"Point","coordinates":[-1.25762862282567,51.7519826571134]},"properties":{"Publisher":"Oxford University Press","city":"Oxford","country":"England","Pub_Location":"Oxford, England","ObjectId":380}},{"type":"Feature","id":381,"geometry":{"type":"Point","coordinates":[-1.25762862282567,51.7519826571134]},"properties":{"Publisher":"Oxford University Press","city":"Oxford","country":"England","Pub_Location":"Oxford, England","ObjectId":381}},{"type":"Feature","id":382,"geometry":{"type":"Point","coordinates":[-1.25762862282567,51.7519826571134]},"properties":{"Publisher":"Oxford University Press","city":"Oxford","country":"England","Pub_Location":"Oxford, England","ObjectId":382}},{"type":"Feature","id":383,"geometry":{"type":"Point","coordinates":[-1.25762862282567,51.7519826571134]},"properties":{"Publisher":"Oxford University Press","city":"Oxford","country":"England","Pub_Location":"Oxford, England","ObjectId":383}},{"type":"Feature","id":384,"geometry":{"type":"Point","coordinates":[0.119708760838172,52.2048751458312]},"properties":{"Publisher":"The American Academy of Arts and Sciences","city":"Cambridge","country":"England","Pub_Location":"Cambridge, England","ObjectId":384}},{"type":"Feature","id":385,"geometry":{"type":"Point","coordinates":[-89.3864399997889,43.0731300000607]},"properties":{"Publisher":"Cornell University, Africana Studies and Research Center","city":"Madison, WI","country":"United States","Pub_Location":"Madison, WI, United States","ObjectId":385}},{"type":"Feature","id":386,"geometry":{"type":"Point","coordinates":[-76.7882700000323,17.970919999744]},"properties":{"Publisher":"Savacou Cooperative","city":"Kingston","country":"Jamaica","Pub_Location":"Kingston, Jamaica","ObjectId":386}},{"type":"Feature","id":387,"geometry":{"type":"Point","coordinates":[-76.7882700000323,17.970919999744]},"properties":{"Publisher":"Savacou Cooperative","city":"Kingston","country":"Jamaica","Pub_Location":"Kingston, Jamaica","ObjectId":387}},{"type":"Feature","id":388,"geometry":{"type":"Point","coordinates":[-76.7882700000323,17.970919999744]},"properties":{"Publisher":"Savacou Cooperative","city":"Kingston","country":"Jamaica","Pub_Location":"Kingston, Jamaica","ObjectId":388}},{"type":"Feature","id":389,"geometry":{"type":"Point","coordinates":[-76.7882700000323,17.970919999744]},"properties":{"Publisher":"Savacou Cooperative","city":"Kingston","country":"Jamaica","Pub_Location":"Kingston, Jamaica","ObjectId":389}},{"type":"Feature","id":390,"geometry":{"type":"Point","coordinates":[-0.12769869318213,51.5074083600845]},"properties":{"Publisher":"Evans Brothers","city":"London","country":"England","Pub_Location":"London, England","ObjectId":390}},{"type":"Feature","id":391,"geometry":{"type":"Point","coordinates":[-66.8791900003001,10.4880100003147]},"properties":{"Publisher":"Katatay","city":"Caracas","country":"Venezuela","Pub_Location":"Caracas, Venezuela","ObjectId":391}},{"type":"Feature","id":392,"geometry":{"type":"Point","coordinates":[-1.25762862282567,51.7519826571134]},"properties":{"Publisher":"Oxford University Press","city":"Oxford","country":"England","Pub_Location":"Oxford, England","ObjectId":392}},{"type":"Feature","id":393,"geometry":{"type":"Point","coordinates":[-0.12769869318213,51.5074083600845]},"properties":{"Publisher":"Evans Brothers","city":"London","country":"England","Pub_Location":"London, England","ObjectId":393}},{"type":"Feature","id":394,"geometry":{"type":"Point","coordinates":[-0.12769869318213,51.5074083600845]},"properties":{"Publisher":"Longman Inc.","city":"London","country":"England","Pub_Location":"London, England","ObjectId":394}},{"type":"Feature","id":395,"geometry":{"type":"Point","coordinates":[-0.12769869318213,51.5074083600845]},"properties":{"Publisher":"New Beacon Books","city":"London","country":"England","Pub_Location":"London, England","ObjectId":395}},{"type":"Feature","id":396,"geometry":{"type":"Point","coordinates":[-1.25762862282567,51.7519826571134]},"properties":{"Publisher":"Oxford University Press","city":"Oxford","country":"England","Pub_Location":"Oxford, England","ObjectId":396}},{"type":"Feature","id":397,"geometry":{"type":"Point","coordinates":[-76.7427600002659,18.0124500001026]},"properties":{"Publisher":"Savacou Cooperative","city":"Mona","country":"Jamaica","Pub_Location":"Mona, Jamaica","ObjectId":397}},{"type":"Feature","id":398,"geometry":{"type":"Point","coordinates":[-0.12769869318213,51.5074083600845]},"properties":{"Publisher":"Longman Inc.","city":"London","country":"England","Pub_Location":"London, England","ObjectId":398}},{"type":"Feature","id":399,"geometry":{"type":"Point","coordinates":[-89.3864399997889,43.0731300000607]},"properties":{"Publisher":"University of Wisconsin Press","city":"Madison, WI","country":"United States","Pub_Location":"Madison, WI, United States","ObjectId":399}},{"type":"Feature","id":400,"geometry":{"type":"Point","coordinates":[-0.12769869318213,51.5074083600845]},"properties":{"Publisher":"New Beacon Books","city":"London","country":"England","Pub_Location":"London, England","ObjectId":400}},{"type":"Feature","id":401,"geometry":{"type":"Point","coordinates":[2.34139999961038,48.8571699999716]},"properties":{"Publisher":"Éditions du Seuil","city":"Paris","country":"France","Pub_Location":"Paris, France","ObjectId":401}},{"type":"Feature","id":402,"geometry":{"type":"Point","coordinates":[2.34139999961038,48.8571699999716]},"properties":{"Publisher":"Éditions du Seuil","city":"Paris","country":"France","Pub_Location":"Paris, France","ObjectId":402}},{"type":"Feature","id":403,"geometry":{"type":"Point","coordinates":[2.34139999961038,48.8571699999716]},"properties":{"Publisher":"Éditions du Seuil","city":"Paris","country":"France","Pub_Location":"Paris, France","ObjectId":403}},{"type":"Feature","id":404,"geometry":{"type":"Point","coordinates":[12.4956499997218,41.9032199997819]},"properties":{"Publisher":"Lavoro","city":"Roma","country":"Italy","Pub_Location":"Roma, Italy","ObjectId":404}},{"type":"Feature","id":405,"geometry":{"type":"Point","coordinates":[-79.3367500000607,43.8561860001463]},"properties":{"Publisher":"Penguin Books","city":"Markham","country":"Canada","Pub_Location":"Markham, Canada","ObjectId":405}},{"type":"Feature","id":406,"geometry":{"type":"Point","coordinates":[11.5775399996518,48.1364100002352]},"properties":{"Publisher":"München Wien Hanser","city":"Munich","country":"Germany","Pub_Location":"Munich, Germany","ObjectId":406}},